FID,ogc_fid,wkb_geometry,name,description,timestamp,begin,end,altitudemode,tessellate,extrude,visibility,draworder,icon,referencia,direccion,lat,lon
da_amb_contenedoresvidrio.fid-2958923c_16b642ccbef_-420e,10867,POINT (376614.0898563231 4065288.922467877),MLG0365,Cerrado de Calderón,,,,,-1,0,-1,,,MLG0365,Cerrado de Calderón,36.725295,-4.381738
da_amb_contenedoresvidrio.fid-2958923c_16b642ccbef_-420d,10868,POINT (376478.9402421902 4065393.622346991),MLG0366,Rodeo,,,,,-1,0,-1,,,MLG0366,Rodeo,36.726221,-4.383268
da_amb_contenedoresvidrio.fid-2958923c_16b642ccbef_-420c,10869,POINT (376342.50736161135 4065866.5105895954),MLG0367,Flamencos,,,,,-1,0,-1,,,MLG0367,Flamencos,36.730465,-4.384872
da_amb_contenedoresvidrio.fid-2958923c_16b642ccbef_-420b,10870,POINT (376281.9470457399 4066113.16448125),MLG0368,Flamencos vs Arces,,,,,-1,0,-1,,,MLG0368,Flamencos vs Arces,36.732680,-4.385590
da_amb_contenedoresvidrio.fid-2958923c_16b642ccbef_-420a,10871,POINT (376427.05794975196 4066278.506221708),MLG0369,Meridiana,,,,,-1,0,-1,,,MLG0369,Meridiana,36.734189,-4.383992
da_amb_contenedoresvidrio.fid-2958923c_16b642ccbef_-4209,10872,POINT (376302.70706432185 4066622.1743439767),MLG0370,Cardos vs Alcaparrón,,,,,-1,0,-1,,,MLG0370,Cardos vs Alcaparrón,36.737270,-4.385440
da_amb_contenedoresvidrio.fid-2958923c_16b642ccbef_-4208,10873,POINT (376259.64357749396 4066485.2059385087),MLG0371,Alcaparron,,,,,-1,0,-1,,,MLG0371,Alcaparron,36.736030,-4.385900
da_amb_contenedoresvidrio.fid-2958923c_16b642ccbef_-4207,10874,POINT (376464.51030895684 4065421.127025034),MLG0372,Flamencos,,,,,-1,0,-1,,,MLG0372,Flamencos,36.726467,-4.383434
da_amb_contenedoresvidrio.fid-2958923c_16b642ccbef_-4206,10875,POINT (376751.8857315382 4066433.7127800905),MLG0373,De la Sierra,,,,,-1,0,-1,,,MLG0373,De la Sierra,36.735630,-4.380380
da_amb_contenedoresvidrio.fid-2958923c_16b642ccbef_-4205,10876,POINT (376751.1034046783 4066205.9219926917),MLG0374,Liebre,,,,,-1,0,-1,,,MLG0374,Liebre,36.733577,-4.380352
da_amb_contenedoresvidrio.fid-2958923c_16b642ccbef_-4204,10877,POINT (381768.98631776596 4063827.044510233),MLG0375,de Almerìa la Araña,,,,,-1,0,-1,,,MLG0375,de Almerìa la Araña,36.712776,-4.323799
da_amb_contenedoresvidrio.fid-2958923c_16b642ccbef_-4203,10878,POINT (380964.78137197345 4064974.8465967383),MLG0376,estrella de mar junto a glorieta erizo ,,,,,-1,0,-1,,,MLG0376,estrella de mar junto a glorieta erizo,36.723020,-4.332980
da_amb_contenedoresvidrio.fid-2958923c_16b642ccbef_-4202,10879,POINT (380629.6184520777 4065280.213723236),MLG0377,jarazmin cruce con calle sardina,,,,,-1,0,-1,,,MLG0377,jarazmin cruce con calle sardina,36.725730,-4.336780
da_amb_contenedoresvidrio.fid-2958923c_16b642ccbef_-4201,10880,POINT (380695.3434642047 4065445.7344073),MLG0378,jarazmin cruce con calle el timbal,,,,,-1,0,-1,,,MLG0378,jarazmin cruce con calle el timbal,36.727230,-4.336070
da_amb_contenedoresvidrio.fid-2958923c_16b642ccbef_-4200,10881,POINT (380648.79333138856 4065041.2747146776),MLG0379,Jarazmín,,,,,-1,0,-1,,,MLG0379,Jarazmín,36.723579,-4.336528
da_amb_contenedoresvidrio.fid-2958923c_16b642ccbef_-41ff,10882,POINT (380086.0288153464 4064796.3805975723),MLG0380,Golf del Candado,,,,,-1,0,-1,,,MLG0380,Golf del Candado,36.721301,-4.342790
da_amb_contenedoresvidrio.fid-2958923c_16b642ccbef_-41fe,10883,POINT (379942.82761436154 4064075.9373817937),MLG0381,almeria,,,,,-1,0,-1,,,MLG0381,almeria,36.714790,-4.344280
da_amb_contenedoresvidrio.fid-2958923c_16b642ccbef_-41fd,10884,POINT (379554.2251363953 4064341.9290819466),MLG0382,Salvador Allende,,,,,-1,0,-1,,,MLG0382,Salvador Allende,36.717138,-4.348672
da_amb_contenedoresvidrio.fid-2958923c_16b642ccbef_-41fc,10885,POINT (379492.57794064685 4064385.627131023),MLG0383,Salvador Allende,,,,,-1,0,-1,,,MLG0383,Salvador Allende,36.717524,-4.349369
da_amb_contenedoresvidrio.fid-2958923c_16b642ccbef_-41fb,10886,POINT (379362.3225388541 4064403.6625114456),MLG0384,salvador allende,,,,,-1,0,-1,,,MLG0384,salvador allende,36.717670,-4.350830
da_amb_contenedoresvidrio.fid-2958923c_16b642ccbef_-41fa,10887,POINT (379454.85101514036 4064694.1803442747),MLG0385,principal del candado,,,,,-1,0,-1,,,MLG0385,principal del candado,36.720300,-4.349840
da_amb_contenedoresvidrio.fid-2958923c_16b642ccbef_-41f9,10888,POINT (379861.4725588877 4064834.926660094),MLG0386,baja,,,,,-1,0,-1,,,MLG0386,baja,36.721620,-4.345310
da_amb_contenedoresvidrio.fid-2958923c_16b642ccbef_-41f8,10889,POINT (380058.24709928024 4064216.345811435),MLG0387,mina del candado cruce con calle ,,,,,-1,0,-1,,,MLG0387,mina del candado cruce con calle,36.716070,-4.343010
da_amb_contenedoresvidrio.fid-2958923c_16b642ccbef_-41f7,10890,POINT (380297.7886157149 4064481.511057649),MLG0388,mina del candado,,,,,-1,0,-1,,,MLG0388,mina del candado,36.718490,-4.340370
da_amb_contenedoresvidrio.fid-2958923c_16b642ccbef_-41f6,10891,POINT (379154.5957389828 4064571.811605916),MLG0389,le Corbusier,,,,,-1,0,-1,,,MLG0389,le Corbusier,36.719159,-4.353182
da_amb_contenedoresvidrio.fid-2958923c_16b642ccbef_-41f5,10892,POINT (379083.45332155866 4064518.5576929413),MLG0390,luis de milan,,,,,-1,0,-1,,,MLG0390,luis de milan,36.718670,-4.353970
da_amb_contenedoresvidrio.fid-2958923c_16b642ccbef_-41f4,10893,POINT (375320.75168174267 4065855.2683798983),MLG0391,mayorazgo,,,,,-1,0,-1,,,MLG0391,mayorazgo,36.730230,-4.396310
da_amb_contenedoresvidrio.fid-2958923c_16b642ccbef_-41f3,10894,POINT (374718.72443470644 4066145.46419771),MLG0392,la Era,,,,,-1,0,-1,,,MLG0392,la Era,36.732766,-4.403098
da_amb_contenedoresvidrio.fid-2958923c_16b642ccbef_-41f2,10895,POINT (380344.53086028015 4065843.427992604),MLG0393,de olias,,,,,-1,0,-1,,,MLG0393,de olias,36.730770,-4.340060
da_amb_contenedoresvidrio.fid-2958923c_16b642ccbef_-41f1,10896,POINT (379890.200747873 4065290.563725403),MLG0394,escritor fracisco gallego s/n,,,,,-1,0,-1,,,MLG0394,escritor fracisco gallego s/n,36.725730,-4.345060
da_amb_contenedoresvidrio.fid-2958923c_16b642ccbef_-41f0,10897,POINT (379891.4706982714 4065279.2280991413),MLG0395,Escritor Fuentes y Cerda,,,,,-1,0,-1,,,MLG0395,Escritor Fuentes y Cerda,36.725628,-4.345044
da_amb_contenedoresvidrio.fid-2958923c_16b642ccbef_-41ef,10898,POINT (379396.9316245349 4064501.4842216466),MLG0396,Playa Virginia,,,,,-1,0,-1,,,MLG0396,Playa Virginia,36.718556,-4.350458
da_amb_contenedoresvidrio.fid-2958923c_16b642ccbef_-41ee,10899,POINT (378538.3945725936 4066708.85143238),MLG0397,san anton versus ipomea,,,,,-1,0,-1,,,MLG0397,san anton versus ipomea,36.738340,-4.360420
da_amb_contenedoresvidrio.fid-2958923c_16b642ccbef_-41ed,10900,POINT (378380.1501469203 4065754.6280503776),MLG0398,san anton,,,,,-1,0,-1,,,MLG0398,san anton,36.729720,-4.362040
da_amb_contenedoresvidrio.fid-2958923c_16b642ccbef_-41ec,10901,POINT (379188.4771234371 4065377.0070426543),MLG0399,matilde pedrazo,,,,,-1,0,-1,,,MLG0399,matilde pedrazo,36.726420,-4.352930
da_amb_contenedoresvidrio.fid-2958923c_16b642ccbef_-41eb,10902,POINT (378722.3486357745 4065511.2062618546),MLG0400,reina fabiola versus reino de leon,,,,,-1,0,-1,,,MLG0400,reina fabiola versus reino de leon,36.727570,-4.358170
da_amb_contenedoresvidrio.fid-2958923c_16b642ccbef_-41ea,10903,POINT (378680.2308869107 4065205.444592936),MLG0401,Villafuerte,,,,,-1,0,-1,,,MLG0401,Villafuerte,36.724809,-4.358593
da_amb_contenedoresvidrio.fid-2958923c_16b642ccbef_-41e9,10904,POINT (378549.9781254361 4065008.7863732926),MLG0402,villafuerte versus calle clavel,,,,,-1,0,-1,,,MLG0402,villafuerte versus calle clavel,36.723020,-4.360020
da_amb_contenedoresvidrio.fid-2958923c_16b642ccbef_-41e8,10905,POINT (377215.52953329915 4066256.163975422),MLG0403,escritor jimenez enciso versus ,,,,,-1,0,-1,,,MLG0403,escritor jimenez enciso versus,36.734090,-4.375160
da_amb_contenedoresvidrio.fid-2958923c_16b642ccbef_-41e7,10906,POINT (377569.82168952754 4065956.4853370083),MLG0404,Eucaliptus,,,,,-1,0,-1,,,MLG0404,Eucaliptus,36.731435,-4.371145
da_amb_contenedoresvidrio.fid-2958923c_16b642ccbef_-41e6,10907,POINT (377726.85002316814 4065101.5118482444),MLG0405,amador de los rios,,,,,-1,0,-1,,,MLG0405,amador de los rios,36.723750,-4.369250
da_amb_contenedoresvidrio.fid-2958923c_16b642ccbef_-41e5,10908,POINT (378034.9204166456 4065345.6640107115),MLG0406,hernan nuñez de toledo s/n,,,,,-1,0,-1,,,MLG0406,hernan nuñez de toledo s/n,36.725990,-4.365840
da_amb_contenedoresvidrio.fid-2958923c_16b642ccbef_-41e4,10909,POINT (377825.960348168 4065286.508367777),MLG0407,manuel de palacio,,,,,-1,0,-1,,,MLG0407,manuel de palacio,36.725430,-4.368170
da_amb_contenedoresvidrio.fid-2958923c_16b642ccbef_-41e3,10910,POINT (376854.4917981542 4066488.824422737),MLG0408,juan vazquez s/n,,,,,-1,0,-1,,,MLG0408,juan vazquez s/n,36.736140,-4.379240
da_amb_contenedoresvidrio.fid-2958923c_16b642ccbef_-41e2,10911,POINT (376884.1187143974 4066859.3389944774),MLG0409,Altabaca,,,,,-1,0,-1,,,MLG0409,Altabaca,36.739483,-4.378968
da_amb_contenedoresvidrio.fid-2958923c_16b642ccbef_-41e1,10912,POINT (376616.2951626802 4065448.007986883),MLG0410,Unidad,,,,,-1,0,-1,,,MLG0410,Unidad,36.726729,-4.381739
da_amb_contenedoresvidrio.fid-2958923c_16b642ccbef_-41e0,10913,POINT (376631.19355269114 4066406.49242643),MLG0411,Olmo,,,,,-1,0,-1,,,MLG0411,Olmo,36.735369,-4.381727
da_amb_contenedoresvidrio.fid-2958923c_16b642ccbef_-41df,10914,POINT (376819.0737271017 4066720.7983507817),MLG0412,Ronda Este,,,,,-1,0,-1,,,MLG0412,Ronda Este,36.738226,-4.379674
da_amb_contenedoresvidrio.fid-2958923c_16b642ccbef_-41de,10915,POINT (376715.0558647188 4066871.09577832),MLG0413,Centaurea,,,,,-1,0,-1,,,MLG0413,Centaurea,36.739567,-4.380863
da_amb_contenedoresvidrio.fid-2958923c_16b642ccbef_-41dd,10916,POINT (376503.55587700015 4066801.2468301477),MLG0414,matagallo,,,,,-1,0,-1,,,MLG0414,matagallo,36.738910,-4.383220
da_amb_contenedoresvidrio.fid-2958923c_16b642ccbef_-41dc,10917,POINT (376224.4753125838 4065906.499389288),MLG0415,chopera,,,,,-1,0,-1,,,MLG0415,chopera,36.730810,-4.386200
da_amb_contenedoresvidrio.fid-2958923c_16b642ccbef_-41db,10918,POINT (371754.3374319216 4063233.794967424),MLG0416,Murillo Carrera,,,,,-1,0,-1,,,MLG0416,Murillo Carrera,36.706130,-4.435800
da_amb_contenedoresvidrio.fid-2958923c_16b642ccbef_-41da,10919,POINT (371835.0311937685 4063121.4018754936),MLG0417,Capulino Jáuregui,,,,,-1,0,-1,,,MLG0417,Capulino Jáuregui,36.705128,-4.434878
da_amb_contenedoresvidrio.fid-2958923c_16b642ccbef_-41d9,10920,POINT (371776.04140330304 4063251.2238665465),MLG0418,Ayala,,,,,-1,0,-1,,,MLG0418,Ayala,36.706290,-4.435560
da_amb_contenedoresvidrio.fid-2958923c_16b642ccbef_-41d8,10921,POINT (375269.8399550535 4066100.1255405913),MLG0419,de las caballerizas,,,,,-1,0,-1,,,MLG0419,de las caballerizas,36.732430,-4.396920
da_amb_contenedoresvidrio.fid-2958923c_16b642ccbef_-41d7,10922,POINT (375229.8495976974 4065807.771018139),MLG0420,de las caballerizas,,,,,-1,0,-1,,,MLG0420,de las caballerizas,36.729790,-4.397320
da_amb_contenedoresvidrio.fid-2958923c_16b642ccbef_-41d6,10923,POINT (375222.970855539 4065660.73671633),MLG0421,las Caballerizas,,,,,-1,0,-1,,,MLG0421,las Caballerizas,36.728464,-4.397373
da_amb_contenedoresvidrio.fid-2958923c_16b642ccbef_-41d5,10924,POINT (374921.38226711703 4065907.703314804),MLG0422,Las Espuelas,,,,,-1,0,-1,,,MLG0422,Las Espuelas,36.730650,-4.400790
da_amb_contenedoresvidrio.fid-2958923c_16b642ccbef_-41d4,10925,POINT (375272.049587007 4066067.914534192),MLG0423,del Mayoral,,,,,-1,0,-1,,,MLG0423,del Mayoral,36.732140,-4.396890
da_amb_contenedoresvidrio.fid-2958923c_16b642ccbef_-41d3,10926,POINT (375859.944544674 4065836.329220263),MLG0424,Lingüista Manuel Seco,,,,,-1,0,-1,,,MLG0424,Lingüista Manuel Seco,36.730130,-4.390270
da_amb_contenedoresvidrio.fid-2958923c_16b642ccbef_-41d2,10927,POINT (375925.39640824264 4065668.9381169514),MLG0425,Lingüista Manuel Seco,,,,,-1,0,-1,,,MLG0425,Lingüista Manuel Seco,36.728630,-4.389510
da_amb_contenedoresvidrio.fid-2958923c_16b642ccbef_-41d1,10928,POINT (375899.3566123543 4065517.854266805),MLG0426,Miguel Induráin,,,,,-1,0,-1,,,MLG0426,Miguel Induráin,36.727265,-4.389777
da_amb_contenedoresvidrio.fid-2958923c_16b642ccbef_-41d0,10929,POINT (376238.1653028925 4065494.6369496407),MLG0427,Federico Fellini,,,,,-1,0,-1,,,MLG0427,Federico Fellini,36.727100,-4.385980
da_amb_contenedoresvidrio.fid-2958923c_16b642ccbef_-41cf,10930,POINT (376141.22936492675 4065554.6272973204),MLG0428,Federico Fellini,,,,,-1,0,-1,,,MLG0428,Federico Fellini,36.727628,-4.387075
da_amb_contenedoresvidrio.fid-2958923c_16b642ccbef_-41ce,10931,POINT (375163.7353792166 4065071.9530086135),MLG0429,Paseo de Sancha,,,,,-1,0,-1,,,MLG0429,Paseo de Sancha,36.723150,-4.397940
da_amb_contenedoresvidrio.fid-2958923c_16b642ccbef_-41cd,10932,POINT (374738.50905450335 4065886.4119844646),MLG0430,Sierra de Grazalema,,,,,-1,0,-1,,,MLG0430,Sierra de Grazalema,36.730434,-4.402834
da_amb_contenedoresvidrio.fid-2958923c_16b642ccbef_-41cc,10933,POINT (374761.1321219475 4065394.0773811797),MLG0431,carril de castell,,,,,-1,0,-1,,,MLG0431,carril de castell,36.726000,-4.402500
da_amb_contenedoresvidrio.fid-2958923c_16b642ccbef_-41cb,10934,POINT (375028.4384146769 4065349.112330721),MLG0432,republica argentina cruce con calle ,,,,,-1,0,-1,,,MLG0432,republica argentina cruce con calle,36.725630,-4.399500
da_amb_contenedoresvidrio.fid-2958923c_16b642ccbef_-41ca,10935,POINT (374973.3927983713 4065494.1664384445),MLG0433,palmeras del limonar,,,,,-1,0,-1,,,MLG0433,palmeras del limonar,36.726930,-4.400140
da_amb_contenedoresvidrio.fid-2958923c_16b642ccbef_-41c9,10936,POINT (374761.7662192655 4065559.4006933062),MLG0434,sierra de grazalema,,,,,-1,0,-1,,,MLG0434,sierra de grazalema,36.727490,-4.402520
da_amb_contenedoresvidrio.fid-2958923c_16b642ccbef_-41c8,10937,POINT (377253.64646088047 4064854.4116270705),MLG0435,Bolivia,,,,,-1,0,-1,,,MLG0435,Bolivia,36.721462,-4.374508
da_amb_contenedoresvidrio.fid-2958923c_16b642ccbef_-41c7,10938,POINT (377521.5016055296 4064802.3053892585),MLG0436,Bolivia,,,,,-1,0,-1,,,MLG0436,Bolivia,36.721027,-4.371501
da_amb_contenedoresvidrio.fid-2958923c_16b642ccbef_-41c6,10939,POINT (377520.0901559413 4064803.5461536744),MLG0437,Bolivia,,,,,-1,0,-1,,,MLG0437,Bolivia,36.721038,-4.371517
da_amb_contenedoresvidrio.fid-2958923c_16b642ccbef_-41c5,10940,POINT (376780.96602428646 4064887.5037430883),MLG0438,Pez Plata,,,,,-1,0,-1,,,MLG0438,Pez Plata,36.721699,-4.379805
da_amb_contenedoresvidrio.fid-2958923c_16b642ccbef_-41c4,10941,POINT (376733.3567481898 4064912.378907673),MLG0439,Juan Sebastián Elcano,,,,,-1,0,-1,,,MLG0439,Juan Sebastián Elcano,36.721917,-4.380342
da_amb_contenedoresvidrio.fid-2958923c_16b642ccbef_-41c3,10942,POINT (377970.84621050203 4064591.9408498085),MLG0440,Marítimo el Pedregal,,,,,-1,0,-1,,,MLG0440,Marítimo el Pedregal,36.719189,-4.366437
da_amb_contenedoresvidrio.fid-2958923c_16b642ccbef_-41c2,10943,POINT (378163.37563588226 4064832.3096013484),MLG0441,Escultor Marin Higuero,,,,,-1,0,-1,,,MLG0441,Escultor Marin Higuero,36.721380,-4.364320
da_amb_contenedoresvidrio.fid-2958923c_16b642ccbef_-41c1,10944,POINT (378263.32282595505 4064668.553123426),MLG0442,Arquitecto Eduardo Esteve,,,,,-1,0,-1,,,MLG0442,Arquitecto Eduardo Esteve,36.719917,-4.363175
da_amb_contenedoresvidrio.fid-2958923c_16b642ccbef_-41c0,10945,POINT (378461.33523372025 4064679.386107102),MLG0443,Alonso Carrilo de Albornoz,,,,,-1,0,-1,,,MLG0443,Alonso Carrilo de Albornoz,36.720040,-4.360960
da_amb_contenedoresvidrio.fid-2958923c_16b642ccbef_-41bf,10946,POINT (378346.8117162225 4064578.376173556),MLG0444,Quitapenas,,,,,-1,0,-1,,,MLG0444,Quitapenas,36.719115,-4.362226
da_amb_contenedoresvidrio.fid-2958923c_16b642ccbef_-41be,10947,POINT (378873.1037332461 4064488.2450750563),MLG0445,Banda del Mar,,,,,-1,0,-1,,,MLG0445,Banda del Mar,36.718370,-4.356320
da_amb_contenedoresvidrio.fid-2958923c_16b642ccbef_-41bd,10948,POINT (378789.1670563633 4064767.941339443),MLG0446,Almería,,,,,-1,0,-1,,,MLG0446,Almería,36.720880,-4.357304
da_amb_contenedoresvidrio.fid-2958923c_16b642ccbef_-41bc,10949,POINT (378619.538007457 4064799.417501269),MLG0447,Real,,,,,-1,0,-1,,,MLG0447,Real,36.721142,-4.359208
da_amb_contenedoresvidrio.fid-2958923c_16b642ccbef_-41bb,10950,POINT (378458.8780761155 4064808.2448917115),MLG0448,Juan Sebastián Elcano,,,,,-1,0,-1,,,MLG0448,Juan Sebastián Elcano,36.721201,-4.361008
da_amb_contenedoresvidrio.fid-2958923c_16b642ccbef_-41ba,10951,POINT (377863.7481796751 4064942.770146498),MLG0449,Juan Sebastián Elcano,,,,,-1,0,-1,,,MLG0449,Juan Sebastián Elcano,36.722337,-4.367692
da_amb_contenedoresvidrio.fid-2958923c_16b642ccbef_-41b9,10952,POINT (377691.47079643427 4064744.8378534922),MLG0450,Acacias,,,,,-1,0,-1,,,MLG0450,Acacias,36.720531,-4.369589
da_amb_contenedoresvidrio.fid-2958923c_16b642ccbef_-41b8,10953,POINT (378181.8047610632 4064727.634233336),MLG0451,Pío Baroja,,,,,-1,0,-1,,,MLG0451,Pío Baroja,36.720439,-4.364097
da_amb_contenedoresvidrio.fid-2958923c_16b642ccbef_-41b7,10954,POINT (378354.74252778915 4064690.1105433027),MLG0452,Pío Baroja,,,,,-1,0,-1,,,MLG0452,Pío Baroja,36.720123,-4.362155
da_amb_contenedoresvidrio.fid-2958923c_16b642ccbef_-41b6,10955,POINT (378425.61776366195 4064730.602001482),MLG0453,Estación de el Palo,,,,,-1,0,-1,,,MLG0453,Estación de el Palo,36.720497,-4.361368
da_amb_contenedoresvidrio.fid-2958923c_16b642ccbef_-41b5,10956,POINT (378759.1480199223 4064515.3795980336),MLG0454,banda del mar,,,,,-1,0,-1,,,MLG0454,banda del mar,36.718600,-4.357600
da_amb_contenedoresvidrio.fid-2958923c_16b642ccbef_-41b4,10957,POINT (378619.210584661 4064725.9670661297),MLG0455,almeria,,,,,-1,0,-1,,,MLG0455,almeria,36.720480,-4.359200
da_amb_contenedoresvidrio.fid-2958923c_16b642ccbef_-41b3,10958,POINT (378921.1215667825 4064725.2399817943),MLG0456,Almería,,,,,-1,0,-1,,,MLG0456,Almería,36.720512,-4.355820
da_amb_contenedoresvidrio.fid-2958923c_16b642ccbef_-41b2,10959,POINT (378624.2928588841 4064668.6399572007),MLG0457,Mar,,,,,-1,0,-1,,,MLG0457,Mar,36.719964,-4.359134
da_amb_contenedoresvidrio.fid-2958923c_16b642ccbef_-41b1,10960,POINT (376096.67880971776 4064976.279406761),MLG0458,Pintor Joaquín Sorolla,,,,,-1,0,-1,,,MLG0458,Pintor Joaquín Sorolla,36.722410,-4.387480
da_amb_contenedoresvidrio.fid-2958923c_16b642ccbef_-41b0,10961,POINT (375173.5398109454 4065064.375547932),MLG0459,del Pintor Joaquín Sorolla,,,,,-1,0,-1,,,MLG0459,del Pintor Joaquín Sorolla,36.723083,-4.397829
da_amb_contenedoresvidrio.fid-2958923c_16b642ccbef_-41af,10962,POINT (375527.7548563313 4065104.2647360847),MLG0460,del Pintor Joaquín Sorolla,,,,,-1,0,-1,,,MLG0460,del Pintor Joaquín Sorolla,36.723489,-4.393870
da_amb_contenedoresvidrio.fid-2958923c_16b642ccbef_-41ae,10963,POINT (375302.7052668221 4064997.135791101),MLG0461,Marítimo Pablo Ruiz Picasso,,,,,-1,0,-1,,,MLG0461,Marítimo Pablo Ruiz Picasso,36.722494,-4.396372
da_amb_contenedoresvidrio.fid-2958923c_16b642ccbef_-41ad,10964,POINT (376622.94879022345 4064887.4508322664),MLG0462,del Pintor Joaquín Sorolla,,,,,-1,0,-1,,,MLG0462,del Pintor Joaquín Sorolla,36.721678,-4.381574
da_amb_contenedoresvidrio.fid-2958923c_16b642ccbef_-41ac,10965,POINT (376958.17011296627 4064948.42269477),MLG0463,Juan Sebastián Elcano,,,,,-1,0,-1,,,MLG0463,Juan Sebastián Elcano,36.722271,-4.377831
da_amb_contenedoresvidrio.fid-2958923c_16b642ccbef_-41ab,10966,POINT (377102.26366601465 4064961.7750464273),MLG0464,juan sebastian elcano cruce con calle ,,,,,-1,0,-1,,,MLG0464,juan sebastian elcano cruce con calle,36.722410,-4.376220
da_amb_contenedoresvidrio.fid-2958923c_16b642ccbef_-41aa,10967,POINT (377496.69022770826 4064997.1733799186),MLG0465,ricardo leon,,,,,-1,0,-1,,,MLG0465,ricardo leon,36.722780,-4.371810
da_amb_contenedoresvidrio.fid-2958923c_16b642ccbef_-41a9,10968,POINT (377822.36521506193 4064684.4919184144),MLG0466,Bolivia,,,,,-1,0,-1,,,MLG0466,Bolivia,36.720004,-4.368114
da_amb_contenedoresvidrio.fid-2958923c_16b642ccbef_-41a8,10969,POINT (377672.73563928274 4064740.223463746),MLG0467,Bolivia,,,,,-1,0,-1,,,MLG0467,Bolivia,36.720487,-4.369798
da_amb_contenedoresvidrio.fid-2958923c_16b642ccbef_-41a7,10970,POINT (366693.3646970283 4064415.220088058),MLG0468,doctor ortiz ramos s/n,,,,,-1,0,-1,,,MLG0468,doctor ortiz ramos s/n,36.716080,-4.492650
da_amb_contenedoresvidrio.fid-2958923c_16b642ccbef_-41a6,10971,POINT (367818.1591475994 4064418.8547478914),MLG0469,boulevard louis pasteur,,,,,-1,0,-1,,,MLG0469,boulevard louis pasteur,36.716270,-4.480060
da_amb_contenedoresvidrio.fid-2958923c_16b642ccbef_-41a5,10972,POINT (368743.0787608506 4064380.2051807083),MLG0470,albert einstein,,,,,-1,0,-1,,,MLG0470,albert einstein,36.716050,-4.469700
da_amb_contenedoresvidrio.fid-2958923c_16b642ccbef_-41a4,10973,POINT (368414.828595467 4064412.9876574827),MLG0471,boulevard louis pasteur s/n,,,,,-1,0,-1,,,MLG0471,boulevard louis pasteur s/n,36.716300,-4.473380
da_amb_contenedoresvidrio.fid-2958923c_16b642ccbef_-41a3,10974,POINT (369257.6235264415 4063910.716959909),MLG0472,pierrot,,,,,-1,0,-1,,,MLG0472,pierrot,36.711890,-4.463860
da_amb_contenedoresvidrio.fid-2958923c_16b642ccbef_-41a2,10975,POINT (369555.1344921422 4063794.1035843673),MLG0473,septimo miau,,,,,-1,0,-1,,,MLG0473,septimo miau,36.710880,-4.460510
da_amb_contenedoresvidrio.fid-2958923c_16b642ccbef_-41a1,10976,POINT (369150.6891840318 4063694.861337414),MLG0474,quasimodo,,,,,-1,0,-1,,,MLG0474,quasimodo,36.709930,-4.465020
da_amb_contenedoresvidrio.fid-2958923c_16b642ccbef_-41a0,10977,POINT (369289.7349382957 4063790.3851916706),MLG0475,robinson crusoe,,,,,-1,0,-1,,,MLG0475,robinson crusoe,36.710810,-4.463480
da_amb_contenedoresvidrio.fid-2958923c_16b642ccbef_-419f,10978,POINT (369420.8965036961 4063720.6950109587),MLG0476,hamlet versus calle shanti andia,,,,,-1,0,-1,,,MLG0476,hamlet versus calle shanti andia,36.710200,-4.462000
da_amb_contenedoresvidrio.fid-2958923c_16b642ccbef_-419e,10979,POINT (369285.69517393765 4063642.864598828),MLG0477,robinson crusoe,,,,,-1,0,-1,,,MLG0477,robinson crusoe,36.709480,-4.463500
da_amb_contenedoresvidrio.fid-2958923c_16b642ccbef_-419d,10980,POINT (369174.86827421107 4063640.119277289),MLG0478,gargantua versus calle daniel dafoe,,,,,-1,0,-1,,,MLG0478,gargantua versus calle daniel dafoe,36.709440,-4.464740
da_amb_contenedoresvidrio.fid-2958923c_16b642ccbef_-419c,10981,POINT (369507.3961338685 4064700.187384361),MLG0479,Béla Bartók,,,,,-1,0,-1,,,MLG0479,Béla Bartók,36.719039,-4.461199
da_amb_contenedoresvidrio.fid-2958923c_16b642ccbef_-419b,10982,POINT (369423.7754917255 4064670.5040904414),MLG0480,gregorio prieto,,,,,-1,0,-1,,,MLG0480,gregorio prieto,36.718760,-4.462130
da_amb_contenedoresvidrio.fid-2958923c_16b642ccbef_-419a,10983,POINT (369281.309807964 4064408.584445118),MLG0481,gregorio prieto versus calle frank ,,,,,-1,0,-1,,,MLG0481,gregorio prieto versus calle frank,36.716380,-4.463680
da_amb_contenedoresvidrio.fid-2958923c_16b642ccbef_-4199,10984,POINT (369271.69032874826 4064246.72360421),MLG0482,kandinski,,,,,-1,0,-1,,,MLG0482,kandinski,36.714920,-4.463760
da_amb_contenedoresvidrio.fid-2958923c_16b642ccbef_-4198,10985,POINT (369469.91394577024 4064515.2270006556),MLG0483,Pirandello,,,,,-1,0,-1,,,MLG0483,Pirandello,36.717367,-4.461587
da_amb_contenedoresvidrio.fid-2958923c_16b642ccbef_-4197,10986,POINT (369001.31163935806 4064908.877423613),MLG0484,juan de robles,,,,,-1,0,-1,,,MLG0484,juan de robles,36.720850,-4.466900
da_amb_contenedoresvidrio.fid-2958923c_16b642ccbef_-4196,10987,POINT (368876.26473433967 4065195.417153166),MLG0485,Miguel Carrera,,,,,-1,0,-1,,,MLG0485,Miguel Carrera,36.723415,-4.468349
da_amb_contenedoresvidrio.fid-2958923c_16b642ccbef_-4195,10988,POINT (369169.8470311156 4065181.490351315),MLG0486,doctor miguel diaz recio,,,,,-1,0,-1,,,MLG0486,doctor miguel diaz recio,36.723330,-4.465060
da_amb_contenedoresvidrio.fid-2958923c_16b642ccbef_-4194,10989,POINT (369440.8812180361 4065217.7407121244),MLG0487,del Capitán,,,,,-1,0,-1,,,MLG0487,del Capitán,36.723694,-4.462032
da_amb_contenedoresvidrio.fid-2958923c_16b642ccbef_-4193,10990,POINT (369448.129941196 4064978.6130251894),MLG0488,juan de robles versus calle carril del ,,,,,-1,0,-1,,,MLG0488,juan de robles versus calle carril del,36.721540,-4.461910
da_amb_contenedoresvidrio.fid-2958923c_16b642ccbef_-4192,10991,POINT (369507.33574625367 4064813.3717779554),MLG0489,del Capitán,,,,,-1,0,-1,,,MLG0489,del Capitán,36.720059,-4.461219
da_amb_contenedoresvidrio.fid-2958923c_16b642ccbef_-4191,10992,POINT (369588.99956287653 4064960.929597177),MLG0490,mesonero romanos,,,,,-1,0,-1,,,MLG0490,mesonero romanos,36.721400,-4.460330
da_amb_contenedoresvidrio.fid-2958923c_16b642ccbef_-4190,10993,POINT (369545.87865132355 4065237.887924889),MLG0491,mesonero romanos,,,,,-1,0,-1,,,MLG0491,mesonero romanos,36.723890,-4.460860
da_amb_contenedoresvidrio.fid-2958923c_16b642ccbef_-418f,10994,POINT (367073.5964645257 4064910.869267939),MLG0492,Maria Barrientos,,,,,-1,0,-1,,,MLG0492,Maria Barrientos,36.720600,-4.488480
da_amb_contenedoresvidrio.fid-2958923c_16b642ccbef_-418e,10995,POINT (367494.35935307294 4065119.504196631),MLG0493,Esquilo,,,,,-1,0,-1,,,MLG0493,Esquilo,36.722539,-4.483806
da_amb_contenedoresvidrio.fid-2958923c_16b642ccbef_-418d,10996,POINT (367530.05321596673 4065197.8477961444),MLG0494,Aristófanes,,,,,-1,0,-1,,,MLG0494,Aristófanes,36.723250,-4.483420
da_amb_contenedoresvidrio.fid-2958923c_16b642ccbef_-418c,10997,POINT (367604.8357057789 4065071.854156323),MLG0495,Aristófanes,,,,,-1,0,-1,,,MLG0495,Aristófanes,36.722125,-4.482561
da_amb_contenedoresvidrio.fid-2958923c_16b642ccbef_-418b,10998,POINT (367678.27364333865 4065211.0890623285),MLG0496,Esquilo,,,,,-1,0,-1,,,MLG0496,Esquilo,36.723390,-4.481763
da_amb_contenedoresvidrio.fid-2958923c_16b642ccbef_-418a,10999,POINT (367832.78189156885 4065249.7577254237),MLG0497,De Parménides,,,,,-1,0,-1,,,MLG0497,De Parménides,36.723760,-4.480040
da_amb_contenedoresvidrio.fid-2958923c_16b642ccbef_-4189,11000,POINT (368202.7885487677 4065447.8919930775),MLG0498,Poeta Aurora de Albornoz,,,,,-1,0,-1,,,MLG0498,Poeta Aurora de Albornoz,36.725597,-4.475932
da_amb_contenedoresvidrio.fid-2958923c_16b642ccbef_-4188,11001,POINT (367653.84622196987 4065445.1598933483),MLG0499,María Casares,,,,,-1,0,-1,,,MLG0499,María Casares,36.725496,-4.482077
da_amb_contenedoresvidrio.fid-2958923c_16b642ccbef_-4187,11002,POINT (367295.3729743307 4065386.797394832),MLG0500,María Victoria Atencia VS Poeta ,,,,,-1,0,-1,,,MLG0500,María Victoria Atencia VS Poeta,36.724920,-4.486080
da_amb_contenedoresvidrio.fid-2958923c_16b642ccbef_-4186,11003,POINT (367991.31250365183 4065323.432027682),MLG0501,Navarro Ledesma,,,,,-1,0,-1,,,MLG0501,Navarro Ledesma,36.724446,-4.478278
da_amb_contenedoresvidrio.fid-2958923c_16b642ccbef_-4185,11004,POINT (367978.609389169 4065206.4488904383),MLG0502,Esquilo VS Parque Doctor Rodríguez ,,,,,-1,0,-1,,,MLG0502,Esquilo VS Parque Doctor Rodríguez,36.723390,-4.478400
da_amb_contenedoresvidrio.fid-2958923c_16b642ccbef_-4184,11005,POINT (367967.1763139922 4065102.3181302007),MLG0503,Sófocles VS Parque Doctor Rodríguez ,,,,,-1,0,-1,,,MLG0503,Sófocles VS Parque Doctor Rodríguez,36.722450,-4.478510
da_amb_contenedoresvidrio.fid-2958923c_16b642ccbef_-4183,11006,POINT (367842.2150919193 4065108.686201466),MLG0504,de Parménides VS Sófocles,,,,,-1,0,-1,,,MLG0504,de Parménides VS Sófocles,36.722490,-4.479910
da_amb_contenedoresvidrio.fid-2958923c_16b642ccbef_-4182,11007,POINT (368205.0404501903 4065118.624129202),MLG0505,Antígono,,,,,-1,0,-1,,,MLG0505,Antígono,36.722630,-4.475850
da_amb_contenedoresvidrio.fid-2958923c_16b642ccbef_-4181,11008,POINT (368169.2251003123 4065460.948235949),MLG0506,Poeta Aurora de Albornoz,,,,,-1,0,-1,,,MLG0506,Poeta Aurora de Albornoz,36.725710,-4.476310
da_amb_contenedoresvidrio.fid-2958923c_16b642ccbef_-4180,11009,POINT (368472.56582678907 4065437.414681284),MLG0507,Escritora Carmen Conde,,,,,-1,0,-1,,,MLG0507,Escritora Carmen Conde,36.725540,-4.472910
da_amb_contenedoresvidrio.fid-2958923c_16b642ccbef_-417f,11010,POINT (368392.91658065724 4065323.125246741),MLG0508,Navarro Ledesma,,,,,-1,0,-1,,,MLG0508,Navarro Ledesma,36.724499,-4.473782
da_amb_contenedoresvidrio.fid-2958923c_16b642ccbef_-417e,11011,POINT (368492.16468554724 4065085.354810227),MLG0509,José Rivera,,,,,-1,0,-1,,,MLG0509,José Rivera,36.722370,-4.472630
da_amb_contenedoresvidrio.fid-2958923c_16b642ccbef_-417d,11012,POINT (369274.2070957765 4065615.7632888523),MLG0510,Juan Francés Bosca,,,,,-1,0,-1,,,MLG0510,Juan Francés Bosca,36.727258,-4.463966
da_amb_contenedoresvidrio.fid-2958923c_16b642ccbef_-417c,11013,POINT (369193.5717116165 4065506.253446859),MLG0511,Juan Rihuerga,,,,,-1,0,-1,,,MLG0511,Juan Rihuerga,36.726260,-4.464850
da_amb_contenedoresvidrio.fid-2958923c_16b642ccbef_-417b,11014,POINT (369006.41040424217 4065533.5297612897),MLG0512,Tomayo y Baus,,,,,-1,0,-1,,,MLG0512,Tomayo y Baus,36.726480,-4.466950
da_amb_contenedoresvidrio.fid-2958923c_16b642ccbef_-417a,11015,POINT (369260.1417299302 4065303.2804426225),MLG0513,Juan Turina,,,,,-1,0,-1,,,MLG0513,Juan Turina,36.724440,-4.464070
da_amb_contenedoresvidrio.fid-2958923c_16b642ccbef_-4179,11016,POINT (369144.2155694147 4065316.149389772),MLG0514,Del Doctor Manuel Díaz Recio,,,,,-1,0,-1,,,MLG0514,Del Doctor Manuel Díaz Recio,36.724540,-4.465370
da_amb_contenedoresvidrio.fid-2958923c_16b642ccbef_-4178,11017,POINT (366324.20232970035 4064287.819990035),MLG0515,Arquitecto Francisco Peñalosa s/n,,,,,-1,0,-1,,,MLG0515,Arquitecto Francisco Peñalosa s/n,36.714880,-4.496760
da_amb_contenedoresvidrio.fid-2958923c_16b642ccbef_-4177,11018,POINT (368049.89691380184 4064384.208017137),MLG0516,Boulevard Louis Pasteur s/n,,,,,-1,0,-1,,,MLG0516,Boulevard Louis Pasteur s/n,36.715990,-4.477460
da_amb_contenedoresvidrio.fid-2958923c_16b642ccbef_-4176,11019,POINT (368482.52887566155 4064167.824587182),MLG0517,Leon Tolstoi s/n,,,,,-1,0,-1,,,MLG0517,Leon Tolstoi s/n,36.714100,-4.472580
da_amb_contenedoresvidrio.fid-2958923c_16b642ccbef_-4175,11020,POINT (371428.3678341146 4064159.1223430554),MLG0518,Horacio Lengo,,,,,-1,0,-1,,,MLG0518,Horacio Lengo,36.714425,-4.439604
da_amb_contenedoresvidrio.fid-2958923c_16b642ccbef_-4174,11021,POINT (369006.379111568 4064306.262928664),MLG0519,Doctor Manuel Dominguez,,,,,-1,0,-1,,,MLG0519,Doctor Manuel Dominguez,36.715420,-4.466740
da_amb_contenedoresvidrio.fid-2958923c_16b642ccbef_-4173,11022,POINT (368347.2345107154 4064490.593043599),MLG0520,Boulevar Louis Pasteur s/n,,,,,-1,0,-1,,,MLG0520,Boulevar Louis Pasteur s/n,36.716990,-4.474150
da_amb_contenedoresvidrio.fid-2958923c_16b642ccbef_-4172,11023,POINT (369141.03920506843 4063764.9163223426),MLG0521,Quasimodo,,,,,-1,0,-1,,,MLG0521,Quasimodo,36.710560,-4.465140
da_amb_contenedoresvidrio.fid-2958923c_16b642ccbef_-4171,11024,POINT (369491.5682984817 4063843.896813093),MLG0522,Pierrot,,,,,-1,0,-1,,,MLG0522,Pierrot,36.711320,-4.461230
da_amb_contenedoresvidrio.fid-2958923c_16b642ccbef_-4170,11025,POINT (369249.60358031455 4063736.6257388177),MLG0523,Hamlet vs Eugenio Oneguin,,,,,-1,0,-1,,,MLG0523,Hamlet vs Eugenio Oneguin,36.710320,-4.463920
da_amb_contenedoresvidrio.fid-2958923c_16b642ccbef_-416f,11026,POINT (369387.9711183087 4063553.641671682),MLG0524,Max Estrella s/n,,,,,-1,0,-1,,,MLG0524,Max Estrella s/n,36.708690,-4.462340
da_amb_contenedoresvidrio.fid-2958923c_16b642ccbef_-416e,11027,POINT (369383.7729556998 4063869.842376249),MLG0525,Pierrot,,,,,-1,0,-1,,,MLG0525,Pierrot,36.711539,-4.462441
da_amb_contenedoresvidrio.fid-2958923c_16b642ccbef_-416d,11028,POINT (369056.5581556442 4064403.698411547),MLG0526,Franz Kafka,,,,,-1,0,-1,,,MLG0526,Franz Kafka,36.716305,-4.466195
da_amb_contenedoresvidrio.fid-2958923c_16b642ccbef_-416c,11029,POINT (369569.9750366241 4064650.519952387),MLG0527,Boulevar Louis Pasteur vs Frank ,,,,,-1,0,-1,,,MLG0527,Boulevar Louis Pasteur vs Frank,36.718600,-4.460490
da_amb_contenedoresvidrio.fid-2958923c_16b642ccbef_-416b,11030,POINT (369439.43236122525 4064701.3351478884),MLG0528,Mallarmé,,,,,-1,0,-1,,,MLG0528,Mallarmé,36.719040,-4.461960
da_amb_contenedoresvidrio.fid-2958923c_16b642ccbef_-416a,11031,POINT (369337.2772835322 4064446.567138728),MLG0529,Gregorio Prieto vs Franz Kafka,,,,,-1,0,-1,,,MLG0529,Gregorio Prieto vs Franz Kafka,36.716730,-4.463060
da_amb_contenedoresvidrio.fid-2958923c_16b642ccbef_-4169,11032,POINT (369435.69059884665 4064321.450875338),MLG0530,Pirandello,,,,,-1,0,-1,,,MLG0530,Pirandello,36.715616,-4.461937
da_amb_contenedoresvidrio.fid-2958923c_16b642ccbef_-4168,11033,POINT (369270.87661466567 4064953.5785735757),MLG0531,Juan de Robles,,,,,-1,0,-1,,,MLG0531,Juan de Robles,36.721290,-4.463890
da_amb_contenedoresvidrio.fid-2958923c_16b642ccbef_-4167,11034,POINT (369207.7245408634 4064994.712887436),MLG0532,Maestro Jiménez,,,,,-1,0,-1,,,MLG0532,Maestro Jiménez,36.721652,-4.464604
da_amb_contenedoresvidrio.fid-2958923c_16b642ccbef_-4166,11035,POINT (367572.25088381616 4064923.1101423805),MLG0533,Plutarco,,,,,-1,0,-1,,,MLG0533,Plutarco,36.720780,-4.482900
da_amb_contenedoresvidrio.fid-2958923c_16b642ccbef_-4165,11036,POINT (367647.9067644493 4064847.5927278786),MLG0534,Aristófanes,,,,,-1,0,-1,,,MLG0534,Aristófanes,36.720110,-4.482040
da_amb_contenedoresvidrio.fid-2958923c_16b642ccbef_-4164,11037,POINT (367871.4807768725 4065094.918341123),MLG0535,Sófocles,,,,,-1,0,-1,,,MLG0535,Sófocles,36.722370,-4.479580
da_amb_contenedoresvidrio.fid-2958923c_16b642ccbef_-4163,11038,POINT (367944.69220383675 4064901.4854352023),MLG0536,Píndaro,,,,,-1,0,-1,,,MLG0536,Píndaro,36.720637,-4.478727
da_amb_contenedoresvidrio.fid-2958923c_16b642ccbef_-4162,11039,POINT (368193.44766694884 4065119.9123793165),MLG0537,Antígona,,,,,-1,0,-1,,,MLG0537,Antígona,36.722640,-4.475980
da_amb_contenedoresvidrio.fid-2958923c_16b642ccbef_-4161,11040,POINT (368161.87656131457 4064943.5206641657),MLG0538,de Plutarco,,,,,-1,0,-1,,,MLG0538,de Plutarco,36.721046,-4.476303
da_amb_contenedoresvidrio.fid-2958923c_16b642ccbef_-4160,11041,POINT (368328.3913738129 4065065.680883301),MLG0539,Margarita Xirgu vs Calle Eolo,,,,,-1,0,-1,,,MLG0539,Margarita Xirgu vs Calle Eolo,36.722170,-4.474460
da_amb_contenedoresvidrio.fid-2958923c_16b642ccbef_-415f,11042,POINT (368073.7871514476 4065527.889018769),MLG0540,del editor Ángel Caffarena,,,,,-1,0,-1,,,MLG0540,del editor Ángel Caffarena,36.726300,-4.477390
da_amb_contenedoresvidrio.fid-2958923c_16b642ccbef_-415e,11043,POINT (368539.58558793133 4065154.3118863767),MLG0541,de Carmen Laforet,,,,,-1,0,-1,,,MLG0541,de Carmen Laforet,36.722998,-4.472111
da_amb_contenedoresvidrio.fid-2958923c_16b642ccbef_-415d,11044,POINT (368917.1541289008 4065263.9214666123),MLG0542,Antonio Raíz,,,,,-1,0,-1,,,MLG0542,Antonio Raíz,36.724038,-4.467903
da_amb_contenedoresvidrio.fid-2958923c_16b642ccbef_-415c,11045,POINT (369254.4894944141 4065401.015530018),MLG0543,Manuel Rivadeneyra,,,,,-1,0,-1,,,MLG0543,Manuel Rivadeneyra,36.725320,-4.464150
da_amb_contenedoresvidrio.fid-2958923c_16b642ccbef_-415b,11046,POINT (368997.53665316827 4065712.318702459),MLG0544,Tamayo y Baus,,,,,-1,0,-1,,,MLG0544,Tamayo y Baus,36.728090,-4.467080
da_amb_contenedoresvidrio.fid-2958923c_16b642ccbef_-415a,11047,POINT (368904.79096854874 4065896.831452628),MLG0545,Nuza,,,,,-1,0,-1,,,MLG0545,Nuza,36.729740,-4.468150
da_amb_contenedoresvidrio.fid-2958923c_16b642ccbef_-4159,11048,POINT (371240.58182814624 4065725.9730293117),MLG0546,Suárez,,,,,-1,0,-1,,,MLG0546,Suárez,36.728520,-4.441970
da_amb_contenedoresvidrio.fid-2958923c_16b642ccbef_-4158,11049,POINT (371919.11243254226 4065765.718889921),MLG0547,Blas de Lezo,,,,,-1,0,-1,,,MLG0547,Blas de Lezo,36.728970,-4.434380
da_amb_contenedoresvidrio.fid-2958923c_16b642ccbef_-4157,11050,POINT (371902.99330930377 4065685.401109177),MLG0548,Blas de Lezo,,,,,-1,0,-1,,,MLG0548,Blas de Lezo,36.728244,-4.434547
da_amb_contenedoresvidrio.fid-2958923c_16b642ccbef_-4156,11051,POINT (371791.40012456145 4065587.872064943),MLG0549,Suárez,,,,,-1,0,-1,,,MLG0549,Suárez,36.727350,-4.435780
da_amb_contenedoresvidrio.fid-2958923c_16b642ccbef_-4155,11052,POINT (371763.8332962382 4065596.0527172475),MLG0550,camino suarez,,,,,-1,0,-1,,,MLG0550,camino suarez,36.727420,-4.436090
da_amb_contenedoresvidrio.fid-2958923c_16b642ccbef_-4154,11053,POINT (371642.9290079691 4065753.214618425),MLG0551,Moret,,,,,-1,0,-1,,,MLG0551,Moret,36.728820,-4.437470
da_amb_contenedoresvidrio.fid-2958923c_16b642ccbef_-4153,11054,POINT (371691.6203271154 4065754.0375376134),MLG0552,Segismundo Moret,,,,,-1,0,-1,,,MLG0552,Segismundo Moret,36.728834,-4.436925
da_amb_contenedoresvidrio.fid-2958923c_16b642ccbef_-4152,11055,POINT (371829.6947685852 4065937.9415469067),MLG0553,Arroyo de los Ángeles,,,,,-1,0,-1,,,MLG0553,Arroyo de los Ángeles,36.730510,-4.435410
da_amb_contenedoresvidrio.fid-2958923c_16b642ccbef_-4151,11056,POINT (371650.890080769 4065986.117896168),MLG0554,Carraca VS Pacheco,,,,,-1,0,-1,,,MLG0554,Carraca VS Pacheco,36.730920,-4.437420
da_amb_contenedoresvidrio.fid-2958923c_16b642ccbef_-4150,11057,POINT (371535.54355878005 4065799.212114455),MLG0555,Arturo Reyes,,,,,-1,0,-1,,,MLG0555,Arturo Reyes,36.729220,-4.438680
da_amb_contenedoresvidrio.fid-2958923c_16b642ccbef_-414f,11058,POINT (371509.0520055603 4065617.2974122087),MLG0556,Suárez,,,,,-1,0,-1,,,MLG0556,Suárez,36.727577,-4.438946
da_amb_contenedoresvidrio.fid-2958923c_16b642ccbef_-414e,11059,POINT (371335.29791557544 4065669.066044853),MLG0557,Barón de Les,,,,,-1,0,-1,,,MLG0557,Barón de Les,36.728020,-4.440900
da_amb_contenedoresvidrio.fid-2958923c_16b642ccbef_-414d,11060,POINT (368938.1556804409 4065043.002112866),MLG0558,Pablo Gargallo vs Antonio Raiz,,,,,-1,0,-1,,,MLG0558,Pablo Gargallo vs Antonio Raiz,36.722050,-4.467630
da_amb_contenedoresvidrio.fid-2958923c_16b642ccbef_-414c,11061,POINT (368746.208016189 4065160.6822670535),MLG0559,Diego Fernández Mendoza,,,,,-1,0,-1,,,MLG0559,Diego Fernández Mendoza,36.723084,-4.469799
da_amb_contenedoresvidrio.fid-2958923c_16b642ccbef_-414b,11062,POINT (369113.64201885107 4065063.5071336627),MLG0560,Andrés Bernáldez,,,,,-1,0,-1,,,MLG0560,Andrés Bernáldez,36.722259,-4.465669
da_amb_contenedoresvidrio.fid-2958923c_16b642ccbef_-414a,11063,POINT (369436.35062085633 4064967.6963534444),MLG0561,Juan de Robles vs Orson Wells,,,,,-1,0,-1,,,MLG0561,Juan de Robles vs Orson Wells,36.721440,-4.462040
da_amb_contenedoresvidrio.fid-2958923c_16b642ccbef_-4149,11064,POINT (369618.3638798258 4064836.202197249),MLG0562,Mesonero Romanos vs Plaza Pintor ,,,,,-1,0,-1,,,MLG0562,Mesonero Romanos vs Plaza Pintor,36.720280,-4.459980
da_amb_contenedoresvidrio.fid-2958923c_16b642ccbef_-4148,11065,POINT (369576.06657434563 4065108.709130225),MLG0563,Mesonero Romanos vs Juan de Robles,,,,,-1,0,-1,,,MLG0563,Mesonero Romanos vs Juan de Robles,36.722730,-4.460500
da_amb_contenedoresvidrio.fid-2958923c_16b642ccbef_-4147,11066,POINT (369834.3095317911 4064938.3299754695),MLG0564,James Joyce,,,,,-1,0,-1,,,MLG0564,James Joyce,36.721230,-4.457580
da_amb_contenedoresvidrio.fid-2958923c_16b642ccbef_-4146,11067,POINT (371281.60072214226 4064949.7220419394),MLG0565,Martinez Maldonado,,,,,-1,0,-1,,,MLG0565,Martinez Maldonado,36.721530,-4.441380
da_amb_contenedoresvidrio.fid-2958923c_16b642ccbef_-4145,11068,POINT (372007.7356675108 4064937.1636297004),MLG0566,Martínez Maldonado,,,,,-1,0,-1,,,MLG0566,Martínez Maldonado,36.721515,-4.433249
da_amb_contenedoresvidrio.fid-2958923c_16b642ccbef_-4144,11069,POINT (371999.0695504576 4065211.7044898085),MLG0567,Rafaela,,,,,-1,0,-1,,,MLG0567,Rafaela,36.723988,-4.433392
da_amb_contenedoresvidrio.fid-2958923c_16b642ccbef_-4143,11070,POINT (371924.38730794995 4065760.091749958),MLG0568,Blas de Lezo,,,,,-1,0,-1,,,MLG0568,Blas de Lezo,36.728920,-4.434320
da_amb_contenedoresvidrio.fid-2958923c_16b642ccbef_-4142,11071,POINT (371863.5133401276 4065512.4462493486),MLG0569,Eugenio Gross vs c/Velarde,,,,,-1,0,-1,,,MLG0569,Eugenio Gross vs c/Velarde,36.726680,-4.434960
da_amb_contenedoresvidrio.fid-2958923c_16b642ccbef_-4141,11072,POINT (371803.0733222938 4065562.175599172),MLG0570,de Suárez,,,,,-1,0,-1,,,MLG0570,de Suárez,36.727120,-4.435645
da_amb_contenedoresvidrio.fid-2958923c_16b642ccbef_-4140,11073,POINT (371642.1726568766 4065464.7217256106),MLG0571,Martinez de la Rosa,,,,,-1,0,-1,,,MLG0571,Martinez de la Rosa,36.726220,-4.437430
da_amb_contenedoresvidrio.fid-2958923c_16b642ccbef_-413f,11074,POINT (371094.4582993363 4065097.901680539),MLG0572,juanita reina s/n,,,,,-1,0,-1,,,MLG0572,juanita reina s/n,36.722840,-4.443500
da_amb_contenedoresvidrio.fid-2958923c_16b642ccbef_-413e,11075,POINT (372009.1014194765 4065392.6458742004),MLG0573,martinez de la rosa,,,,,-1,0,-1,,,MLG0573,martinez de la rosa,36.725620,-4.433310
da_amb_contenedoresvidrio.fid-2958923c_16b642ccbef_-413d,11076,POINT (371870.7536523504 4065697.646079734),MLG0574,Pasaje del Hospital,,,,,-1,0,-1,,,MLG0574,Pasaje del Hospital,36.728350,-4.434910
da_amb_contenedoresvidrio.fid-2958923c_16b642ccbef_-413c,11077,POINT (371758.75504057796 4065561.175474654),MLG0575,Suárez,,,,,-1,0,-1,,,MLG0575,Suárez,36.727105,-4.436141
da_amb_contenedoresvidrio.fid-2958923c_16b642ccbef_-413b,11078,POINT (371554.43588307046 4065504.8758312277),MLG0576,Martínez de la Rosa,,,,,-1,0,-1,,,MLG0576,Martínez de la Rosa,36.726570,-4.438419
da_amb_contenedoresvidrio.fid-2958923c_16b642ccbef_-413a,11079,POINT (371715.450316222 4065466.9513626434),MLG0577,martinez de la rosa,,,,,-1,0,-1,,,MLG0577,martinez de la rosa,36.726250,-4.436610
da_amb_contenedoresvidrio.fid-2958923c_16b642ccbef_-4139,11080,POINT (371847.16865475784 4065435.016981862),MLG0578,martinez de la rosa versus eugenio ,,,,,-1,0,-1,,,MLG0578,martinez de la rosa versus eugenio,36.725980,-4.435130
da_amb_contenedoresvidrio.fid-2958923c_16b642ccbef_-4138,11081,POINT (371091.19525278074 4065231.1069181142),MLG0579,Magistrado Salvador Barbera,,,,,-1,0,-1,,,MLG0579,Magistrado Salvador Barbera,36.724040,-4.443559
da_amb_contenedoresvidrio.fid-2958923c_16b642ccbef_-4137,11082,POINT (371760.432202711 4065071.248443999),MLG0580,igueldo,,,,,-1,0,-1,,,MLG0580,igueldo,36.722690,-4.436040
da_amb_contenedoresvidrio.fid-2958923c_16b642ccbef_-4136,11083,POINT (371743.6266632948 4065195.557040986),MLG0581,Eduardo San Martin,,,,,-1,0,-1,,,MLG0581,Eduardo San Martin,36.723808,-4.436249
da_amb_contenedoresvidrio.fid-2958923c_16b642ccbef_-4135,11084,POINT (371650.5252959676 4065307.0287541896),MLG0582,jose maria coopello versus calle ,,,,,-1,0,-1,,,MLG0582,jose maria coopello versus calle,36.724800,-4.437310
da_amb_contenedoresvidrio.fid-2958923c_16b642ccbef_-4134,11085,POINT (371561.79810628085 4065084.9916539905),MLG0583,Gorbea,,,,,-1,0,-1,,,MLG0583,Gorbea,36.722787,-4.438266
da_amb_contenedoresvidrio.fid-2958923c_16b642ccbef_-4133,11086,POINT (371673.9005812096 4065156.323086151),MLG0584,Aránzazu,,,,,-1,0,-1,,,MLG0584,Aránzazu,36.723445,-4.437023
da_amb_contenedoresvidrio.fid-2958923c_16b642ccbef_-4132,11087,POINT (371344.41784425493 4065081.7111274046),MLG0585,Sondalezas,,,,,-1,0,-1,,,MLG0585,Sondalezas,36.722728,-4.440699
da_amb_contenedoresvidrio.fid-2958923c_16b642ccbef_-4131,11088,POINT (371050.23231675284 4065713.5276580653),MLG0586,Albacete,,,,,-1,0,-1,,,MLG0586,Albacete,36.728382,-4.444099
da_amb_contenedoresvidrio.fid-2958923c_16b642ccbef_-4130,11089,POINT (371097.6728894602 4065809.128890934),MLG0587,Rotonda de Suárez,,,,,-1,0,-1,,,MLG0587,Rotonda de Suárez,36.729250,-4.443584
da_amb_contenedoresvidrio.fid-2958923c_16b642ccbef_-412f,11090,POINT (371307.49902032566 4065905.1704797987),MLG0588,Miraflores de los Ángeles,,,,,-1,0,-1,,,MLG0588,Miraflores de los Ángeles,36.730144,-4.441251
da_amb_contenedoresvidrio.fid-2958923c_16b642ccbef_-412e,11091,POINT (371414.7381448256 4065962.4790845597),MLG0589,Miraflores de los Ángeles,,,,,-1,0,-1,,,MLG0589,Miraflores de los Ángeles,36.730675,-4.440060
da_amb_contenedoresvidrio.fid-2958923c_16b642ccbef_-412d,11092,POINT (371656.4703404399 4066060.379522644),MLG0590,Nuestra Señora de los clarines,,,,,-1,0,-1,,,MLG0590,Nuestra Señora de los clarines,36.731590,-4.437370
da_amb_contenedoresvidrio.fid-2958923c_16b642ccbef_-412c,11093,POINT (371590.38384741533 4066007.332409761),MLG0591,Nuestra Señora de los Clarines,,,,,-1,0,-1,,,MLG0591,Nuestra Señora de los Clarines,36.731103,-4.438101
da_amb_contenedoresvidrio.fid-2958923c_16b642ccbef_-412b,11094,POINT (371479.80936475744 4065894.3682092237),MLG0592,Nuestra Señora de los clarines,,,,,-1,0,-1,,,MLG0592,Nuestra Señora de los clarines,36.730070,-4.439320
da_amb_contenedoresvidrio.fid-2958923c_16b642ccbef_-412a,11095,POINT (371502.90772250085 4065880.1507382384),MLG0593,Arturo Reyes,,,,,-1,0,-1,,,MLG0593,Arturo Reyes,36.729945,-4.439059
da_amb_contenedoresvidrio.fid-2958923c_16b642ccbef_-4129,11096,POINT (371413.98741726833 4065781.842052295),MLG0594,Cabas Galván,,,,,-1,0,-1,,,MLG0594,Cabas Galván,36.729047,-4.440038
da_amb_contenedoresvidrio.fid-2958923c_16b642ccbef_-4128,11097,POINT (371349.7371173392 4065821.4234678764),MLG0595,Juan Antonio Tercero,,,,,-1,0,-1,,,MLG0595,Juan Antonio Tercero,36.729395,-4.440764
da_amb_contenedoresvidrio.fid-2958923c_16b642ccbef_-4127,11098,POINT (370816.8920316817 4066000.8937195935),MLG0596,pedro salinas cruce con plaza luis ,,,,,-1,0,-1,,,MLG0596,pedro salinas cruce con plaza luis,36.730940,-4.446760
da_amb_contenedoresvidrio.fid-2958923c_16b642ccbef_-4126,11099,POINT (370793.50542529556 4066226.5033536414),MLG0597,juan ramon jimenez,,,,,-1,0,-1,,,MLG0597,juan ramon jimenez,36.732970,-4.447060
da_amb_contenedoresvidrio.fid-2958923c_16b642ccbef_-4125,11100,POINT (370637.3779612635 4066178.9299085415),MLG0598,hipocrates cruce con calle luis rosales,,,,,-1,0,-1,,,MLG0598,hipocrates cruce con calle luis rosales,36.732520,-4.448800
da_amb_contenedoresvidrio.fid-2958923c_16b642ccbef_-4124,11101,POINT (370572.3227514867 4065952.438352713),MLG0599,padre martin cruce con camino de ,,,,,-1,0,-1,,,MLG0599,padre martin cruce con camino de,36.730470,-4.449490
da_amb_contenedoresvidrio.fid-2958923c_16b642ccbef_-4123,11102,POINT (370516.17742748413 4066078.677341317),MLG0600,de san alberto,,,,,-1,0,-1,,,MLG0600,de san alberto,36.731600,-4.450140
da_amb_contenedoresvidrio.fid-2958923c_16b642ccbef_-4122,11103,POINT (370520.78283986624 4065615.888468662),MLG0601,victoria kent,,,,,-1,0,-1,,,MLG0601,victoria kent,36.727430,-4.450010
da_amb_contenedoresvidrio.fid-2958923c_16b642ccbef_-4121,11104,POINT (370297.6820154055 4065629.2552837185),MLG0602,victoria kent,,,,,-1,0,-1,,,MLG0602,victoria kent,36.727520,-4.452510
da_amb_contenedoresvidrio.fid-2958923c_16b642ccbef_-4120,11105,POINT (370432.20365203405 4066608.1375836665),MLG0603,de la corta,,,,,-1,0,-1,,,MLG0603,de la corta,36.736360,-4.451170
da_amb_contenedoresvidrio.fid-2958923c_16b642ccbef_-411f,11106,POINT (370849.213237463 4066366.8077311665),MLG0604,Corta,,,,,-1,0,-1,,,MLG0604,Corta,36.734242,-4.446460
da_amb_contenedoresvidrio.fid-2958923c_16b642ccbef_-411e,11107,POINT (370758.0094174604 4066419.007055055),MLG0605,camino de la corta,,,,,-1,0,-1,,,MLG0605,camino de la corta,36.734700,-4.447490
da_amb_contenedoresvidrio.fid-2958923c_16b642ccbef_-411d,11108,POINT (371115.8316087654 4066160.6096114004),MLG0606,jose carrion de mula,,,,,-1,0,-1,,,MLG0606,jose carrion de mula,36.732420,-4.443440
da_amb_contenedoresvidrio.fid-2958923c_16b642ccbef_-411c,11109,POINT (370996.2424790999 4066190.486510048),MLG0607,José Carrión de Mula,,,,,-1,0,-1,,,MLG0607,José Carrión de Mula,36.732673,-4.444784
da_amb_contenedoresvidrio.fid-2958923c_16b642ccbef_-411b,11110,POINT (370961.6139004792 4066061.958234159),MLG0608,padre pedro morejon cruce con calle ,,,,,-1,0,-1,,,MLG0608,padre pedro morejon cruce con calle,36.731510,-4.445150
da_amb_contenedoresvidrio.fid-2958923c_16b642ccbef_-411a,11111,POINT (370881.805400628 4066040.9700264246),MLG0609,miguel hernandez,,,,,-1,0,-1,,,MLG0609,miguel hernandez,36.731310,-4.446040
da_amb_contenedoresvidrio.fid-2958923c_16b642ccbef_-4119,11112,POINT (371822.4585754956 4065395.440515918),MLG0610,Eugenio Gross,,,,,-1,0,-1,,,MLG0610,Eugenio Gross,36.725620,-4.435400
da_amb_contenedoresvidrio.fid-2958923c_16b642ccbef_-4118,11113,POINT (371666.527743246 4065242.4300750084),MLG0611,Purísima vs C/ José Antonio Aragonés,,,,,-1,0,-1,,,MLG0611,Purísima vs C/ José Antonio Aragonés,36.724220,-4.437120
da_amb_contenedoresvidrio.fid-2958923c_16b642ccbef_-4117,11114,POINT (371433.2134516967 4065070.167627393),MLG0612,Doctor Escassi,,,,,-1,0,-1,,,MLG0612,Doctor Escassi,36.722636,-4.439703
da_amb_contenedoresvidrio.fid-2958923c_16b642ccbef_-4116,11115,POINT (371472.9350589822 4065312.025350176),MLG0613,Morales Villarrubia,,,,,-1,0,-1,,,MLG0613,Morales Villarrubia,36.724821,-4.439299
da_amb_contenedoresvidrio.fid-2958923c_16b642ccbef_-4115,11116,POINT (367295.3369313562 4064768.2763852025),MLG0614,Dolores Rodríguez de Aragón,,,,,-1,0,-1,,,MLG0614,Dolores Rodríguez de Aragón,36.719346,-4.485973
da_amb_contenedoresvidrio.fid-2958923c_16b642ccbef_-4114,11117,POINT (367686.32710131176 4064848.1081339046),MLG0615,pindaro,,,,,-1,0,-1,,,MLG0615,pindaro,36.720120,-4.481610
da_amb_contenedoresvidrio.fid-2958923c_16b642ccbef_-4113,11118,POINT (367777.4646640852 4064768.4687647475),MLG0616,de Demóstenes,,,,,-1,0,-1,,,MLG0616,de Demóstenes,36.719415,-4.480576
da_amb_contenedoresvidrio.fid-2958923c_16b642ccbef_-4112,11119,POINT (367695.3489947107 4064853.849773806),MLG0617,Píndaro,,,,,-1,0,-1,,,MLG0617,Píndaro,36.720173,-4.481510
da_amb_contenedoresvidrio.fid-2958923c_16b642ccbef_-4111,11120,POINT (367916.00846955983 4064785.1929387413),MLG0618,de Demóstenes,,,,,-1,0,-1,,,MLG0618,de Demóstenes,36.719585,-4.479028
da_amb_contenedoresvidrio.fid-2958923c_16b642ccbef_-4110,11121,POINT (367986.95244656526 4064936.674975736),MLG0619,andromeda,,,,,-1,0,-1,,,MLG0619,andromeda,36.720960,-4.478260
da_amb_contenedoresvidrio.fid-2958923c_16b642ccbef_-410f,11122,POINT (368041.3210560768 4064754.9632584173),MLG0620,de demostenes,,,,,-1,0,-1,,,MLG0620,de demostenes,36.719330,-4.477620
da_amb_contenedoresvidrio.fid-2958923c_16b642ccbef_-410e,11123,POINT (368108.13297465886 4064742.8365976308),MLG0621,de demostenes,,,,,-1,0,-1,,,MLG0621,de demostenes,36.719230,-4.476870
da_amb_contenedoresvidrio.fid-2958923c_16b642ccbef_-410d,11124,POINT (368230.50102275243 4064799.7625773074),MLG0622,de eolo,,,,,-1,0,-1,,,MLG0622,de eolo,36.719760,-4.475510
da_amb_contenedoresvidrio.fid-2958923c_16b642ccbef_-410c,11125,POINT (368736.48037180526 4064765.3534984775),MLG0623,de demostenes,,,,,-1,0,-1,,,MLG0623,de demostenes,36.719520,-4.469840
da_amb_contenedoresvidrio.fid-2958923c_16b642ccbef_-410b,11126,POINT (368802.905938776 4064838.6809546356),MLG0624,de Jorge Luis Borges,,,,,-1,0,-1,,,MLG0624,de Jorge Luis Borges,36.720190,-4.469109
da_amb_contenedoresvidrio.fid-2958923c_16b642ccbef_-410a,11127,POINT (368578.5064937342 4064890.9493652913),MLG0625,manuel maria care,,,,,-1,0,-1,,,MLG0625,manuel maria care,36.720630,-4.471630
da_amb_contenedoresvidrio.fid-2958923c_16b642ccbef_-4109,11128,POINT (368543.0385760709 4064908.138962994),MLG0626,jose de ribera,,,,,-1,0,-1,,,MLG0626,jose de ribera,36.720780,-4.472030
da_amb_contenedoresvidrio.fid-2958923c_16b642ccbef_-4108,11129,POINT (368461.36656881485 4064900.738983389),MLG0627,Francisco Barbin,,,,,-1,0,-1,,,MLG0627,Francisco Barbin,36.720702,-4.472943
da_amb_contenedoresvidrio.fid-2958923c_16b642ccbef_-4107,11130,POINT (368325.531071865 4065170.031919676),MLG0628,de eolo cruce con calle jano,,,,,-1,0,-1,,,MLG0628,de eolo cruce con calle jano,36.723110,-4.474510
da_amb_contenedoresvidrio.fid-2958923c_16b642ccbef_-4106,11131,POINT (368343.1784378474 4065446.062995836),MLG0629,escritora josefina aldecoa,,,,,-1,0,-1,,,MLG0629,escritora josefina aldecoa,36.725600,-4.474360
da_amb_contenedoresvidrio.fid-2958923c_16b642ccbef_-4105,11132,POINT (368282.9391667226 4065519.228562911),MLG0630,del Editor Ángel Caffarena,,,,,-1,0,-1,,,MLG0630,del Editor Ángel Caffarena,36.726251,-4.475047
da_amb_contenedoresvidrio.fid-2958923c_16b642ccbef_-4104,11133,POINT (368694.4903219107 4065521.6674536634),MLG0631,carlos cano cruce con calle de juan ,,,,,-1,0,-1,,,MLG0631,carlos cano cruce con calle de juan,36.726330,-4.470440
da_amb_contenedoresvidrio.fid-2958923c_16b642ccbef_-4103,11134,POINT (368840.452946691 4065347.43287677),MLG0632,Navarro Ledesma,,,,,-1,0,-1,,,MLG0632,Navarro Ledesma,36.724780,-4.468776
da_amb_contenedoresvidrio.fid-2958923c_16b642ccbef_-4102,11135,POINT (368943.98137730506 4065773.0600395105),MLG0633,nuzas,,,,,-1,0,-1,,,MLG0633,nuzas,36.728630,-4.467690
da_amb_contenedoresvidrio.fid-2958923c_16b642ccbef_-4101,11136,POINT (368842.8599010297 4065352.9442058424),MLG0634,navarro ledesma,,,,,-1,0,-1,,,MLG0634,navarro ledesma,36.724830,-4.468750
da_amb_contenedoresvidrio.fid-2958923c_16b642ccbef_-4100,11137,POINT (371101.7748935625 4065346.3494468248),MLG0635,Maestro Pablo Luna,,,,,-1,0,-1,,,MLG0635,Maestro Pablo Luna,36.725080,-4.443460
da_amb_contenedoresvidrio.fid-2958923c_16b642ccbef_-40ff,11138,POINT (371274.3976349978 4065242.7734755226),MLG0636,Sondalezas vs carril de Gamarra,,,,,-1,0,-1,,,MLG0636,Sondalezas vs carril de Gamarra,36.724170,-4.441510
da_amb_contenedoresvidrio.fid-2958923c_16b642ccbef_-40fe,11139,POINT (371167.77284612553 4065102.345477866),MLG0637,Rosa vs Calle Evaristo Minguet,,,,,-1,0,-1,,,MLG0637,Rosa vs Calle Evaristo Minguet,36.722890,-4.442680
da_amb_contenedoresvidrio.fid-2958923c_16b642ccbef_-40fd,11140,POINT (371078.1145512976 4065246.284098838),MLG0638,Magistrado Salvador Barbera,,,,,-1,0,-1,,,MLG0638,Magistrado Salvador Barbera,36.724175,-4.443708
da_amb_contenedoresvidrio.fid-2958923c_16b642ccbef_-40fc,11141,POINT (371150.3016011772 4065282.702139193),MLG0639,Tomás Escalonilla,,,,,-1,0,-1,,,MLG0639,Tomás Escalonilla,36.724513,-4.442906
da_amb_contenedoresvidrio.fid-2958923c_16b642ccbef_-40fb,11142,POINT (370022.6310898587 4064574.834198138),MLG0640,Spengler,,,,,-1,0,-1,,,MLG0640,Spengler,36.717980,-4.455410
da_amb_contenedoresvidrio.fid-2958923c_16b642ccbef_-40fa,11143,POINT (369986.99275133526 4064669.2510922723),MLG0641,Prosper Mérimée,,,,,-1,0,-1,,,MLG0641,Prosper Mérimée,36.718826,-4.455825
da_amb_contenedoresvidrio.fid-2958923c_16b642ccbef_-40f9,11144,POINT (369871.9449524635 4064476.1473128847),MLG0642,Saint Exupéry,,,,,-1,0,-1,,,MLG0642,Saint Exupéry,36.717070,-4.457080
da_amb_contenedoresvidrio.fid-2958923c_16b642ccbef_-40f8,11145,POINT (370490.29174694576 4065489.8513575895),MLG0643,nuñez vela,,,,,-1,0,-1,,,MLG0643,nuñez vela,36.726290,-4.450330
da_amb_contenedoresvidrio.fid-2958923c_16b642ccbef_-40f7,11146,POINT (370290.37848014414 4065265.4045076757),MLG0644,oscar wilde,,,,,-1,0,-1,,,MLG0644,oscar wilde,36.724240,-4.452530
da_amb_contenedoresvidrio.fid-2958923c_16b642ccbef_-40f6,11147,POINT (370121.44117869507 4065257.980938052),MLG0645,oscar wilde,,,,,-1,0,-1,,,MLG0645,oscar wilde,36.724150,-4.454420
da_amb_contenedoresvidrio.fid-2958923c_16b642ccbef_-40f5,11148,POINT (370024.41927662503 4065280.537656457),MLG0646,carlos de haya,,,,,-1,0,-1,,,MLG0646,carlos de haya,36.724340,-4.455510
da_amb_contenedoresvidrio.fid-2958923c_16b642ccbef_-40f4,11149,POINT (369919.1084548505 4065345.387878513),MLG0647,carlos de haya,,,,,-1,0,-1,,,MLG0647,carlos de haya,36.724910,-4.456700
da_amb_contenedoresvidrio.fid-2958923c_16b642ccbef_-40f3,11150,POINT (369773.49452769576 4065403.085444948),MLG0648,carlos de haya,,,,,-1,0,-1,,,MLG0648,carlos de haya,36.725410,-4.458340
da_amb_contenedoresvidrio.fid-2958923c_16b642ccbef_-40f2,11151,POINT (370656.8586886302 4065340.8590615774),MLG0649,del cipres,,,,,-1,0,-1,,,MLG0649,del cipres,36.724970,-4.448440
da_amb_contenedoresvidrio.fid-2958923c_16b642ccbef_-40f1,11152,POINT (370724.70192704746 4065042.451096854),MLG0650,de Carlos Haya,,,,,-1,0,-1,,,MLG0650,de Carlos Haya,36.722290,-4.447630
da_amb_contenedoresvidrio.fid-2958923c_16b642ccbef_-40f0,11153,POINT (371022.35037380113 4064972.046350164),MLG0651,de Carlos Haya,,,,,-1,0,-1,,,MLG0651,de Carlos Haya,36.721696,-4.444286
da_amb_contenedoresvidrio.fid-2958923c_16b642ccbef_-40ef,11154,POINT (370067.7134385615 4065219.8484619753),MLG0652,de Valle-Inclán,,,,,-1,0,-1,,,MLG0652,de Valle-Inclán,36.723799,-4.455015
da_amb_contenedoresvidrio.fid-2958923c_16b642ccbef_-40ee,11155,POINT (369829.67598138365 4065144.5716986298),MLG0653,Juan de Robles,,,,,-1,0,-1,,,MLG0653,Juan de Robles,36.723088,-4.457667
da_amb_contenedoresvidrio.fid-2958923c_16b642ccbef_-40ed,11156,POINT (369984.8252068516 4065079.1848468),MLG0654,Martín de la Plaza,,,,,-1,0,-1,,,MLG0654,Martín de la Plaza,36.722520,-4.455919
da_amb_contenedoresvidrio.fid-2958923c_16b642ccbef_-40ec,11157,POINT (370107.60966465453 4064876.4750813185),MLG0655,castilla,,,,,-1,0,-1,,,MLG0655,castilla,36.720710,-4.454510
da_amb_contenedoresvidrio.fid-2958923c_16b642ccbef_-40eb,11158,POINT (370280.3655869812 4064781.7541202996),MLG0656,juan de valdes,,,,,-1,0,-1,,,MLG0656,juan de valdes,36.719880,-4.452560
da_amb_contenedoresvidrio.fid-2958923c_16b642ccbef_-40ea,11159,POINT (370291.7253197657 4064706.126546292),MLG0657,competa,,,,,-1,0,-1,,,MLG0657,competa,36.719200,-4.452420
da_amb_contenedoresvidrio.fid-2958923c_16b642ccbef_-40e9,11160,POINT (370480.0429975403 4064688.9594907304),MLG0658,Cómpeta,,,,,-1,0,-1,,,MLG0658,Cómpeta,36.719071,-4.450309
da_amb_contenedoresvidrio.fid-2958923c_16b642ccbef_-40e8,11161,POINT (370416.46909015346 4064802.9940740666),MLG0659,pedro espinosa,,,,,-1,0,-1,,,MLG0659,pedro espinosa,36.720090,-4.451040
da_amb_contenedoresvidrio.fid-2958923c_16b642ccbef_-40e7,11162,POINT (370564.85586458695 4064744.6003833064),MLG0660,Santa Rosa de Lima,,,,,-1,0,-1,,,MLG0660,Santa Rosa de Lima,36.719584,-4.449369
da_amb_contenedoresvidrio.fid-2958923c_16b642ccbef_-40e6,11163,POINT (370487.68696405843 4065040.4876499595),MLG0661,Pedro Espinosa,,,,,-1,0,-1,,,MLG0661,Pedro Espinosa,36.722240,-4.450283
da_amb_contenedoresvidrio.fid-2958923c_16b642ccbef_-40e5,11164,POINT (370643.55014884996 4065051.4451923426),MLG0662,carlos de haya,,,,,-1,0,-1,,,MLG0662,carlos de haya,36.722360,-4.448540
da_amb_contenedoresvidrio.fid-2958923c_16b642ccbef_-40e4,11165,POINT (370998.8198750783 4064916.2536352966),MLG0663,argentea cruce con calle rosario gil ,,,,,-1,0,-1,,,MLG0663,argentea cruce con calle rosario gil,36.721190,-4.444540
da_amb_contenedoresvidrio.fid-2958923c_16b642ccbef_-40e3,11166,POINT (370945.75134857866 4064974.9768795157),MLG0664,de Carlos Haya,,,,,-1,0,-1,,,MLG0664,de Carlos Haya,36.721712,-4.445144
da_amb_contenedoresvidrio.fid-2958923c_16b642ccbef_-40e2,11167,POINT (371087.0605406618 4064962.6378392614),MLG0665,carlos de haya,,,,,-1,0,-1,,,MLG0665,carlos de haya,36.721620,-4.443560
da_amb_contenedoresvidrio.fid-2958923c_16b642ccbef_-40e1,11168,POINT (371329.8945223695 4064834.7034816598),MLG0666,alfredo nobel,,,,,-1,0,-1,,,MLG0666,alfredo nobel,36.720500,-4.440820
da_amb_contenedoresvidrio.fid-2958923c_16b642ccbef_-40e0,11169,POINT (369949.90013640665 4064491.606749805),MLG0667,Spengler,,,,,-1,0,-1,,,MLG0667,Spengler,36.717220,-4.456210
da_amb_contenedoresvidrio.fid-2958923c_16b642ccbef_-40df,11170,POINT (370119.29197459214 4064410.2496356093),MLG0668,Almogía,,,,,-1,0,-1,,,MLG0668,Almogía,36.716510,-4.454300
da_amb_contenedoresvidrio.fid-2958923c_16b642ccbef_-40de,11171,POINT (370091.2837906506 4064507.2133158003),MLG0669,Sthendal,,,,,-1,0,-1,,,MLG0669,Sthendal,36.717380,-4.454630
da_amb_contenedoresvidrio.fid-2958923c_16b642ccbef_-40dd,11172,POINT (370203.7815369025 4064620.9084346243),MLG0670,Benaoján vx calle Torrox,,,,,-1,0,-1,,,MLG0670,Benaoján vx calle Torrox,36.718420,-4.453390
da_amb_contenedoresvidrio.fid-2958923c_16b642ccbef_-40dc,11173,POINT (370450.3874256598 4064506.207480335),MLG0671,Corregidor Carlos Garafa,,,,,-1,0,-1,,,MLG0671,Corregidor Carlos Garafa,36.717420,-4.450610
da_amb_contenedoresvidrio.fid-2958923c_16b642ccbef_-40db,11174,POINT (370440.78429000755 4064461.96742687),MLG0672,Corregidor José Viciana,,,,,-1,0,-1,,,MLG0672,Corregidor José Viciana,36.717020,-4.450710
da_amb_contenedoresvidrio.fid-2958923c_16b642ccbef_-40da,11175,POINT (370573.96124503115 4064466.6098494846),MLG0673,Corregidor José Viciana,,,,,-1,0,-1,,,MLG0673,Corregidor José Viciana,36.717080,-4.449220
da_amb_contenedoresvidrio.fid-2958923c_16b642ccbef_-40d9,11176,POINT (366405.75982777064 4064590.5928374156),MLG0674,Corregidor José Viciana,,,,,-1,0,-1,,,MLG0674,Corregidor José Viciana,36.717620,-4.495900
da_amb_contenedoresvidrio.fid-2958923c_16b642ccbef_-40d8,11177,POINT (370296.04685697093 4064566.9125128035),MLG0675,Archidona,,,,,-1,0,-1,,,MLG0675,Archidona,36.717946,-4.452348
da_amb_contenedoresvidrio.fid-2958923c_16b642ccbef_-40d7,11178,POINT (370245.7976242141 4064387.2473281687),MLG0676,Benagalbón,,,,,-1,0,-1,,,MLG0676,Benagalbón,36.716320,-4.452880
da_amb_contenedoresvidrio.fid-2958923c_16b642ccbef_-40d6,11179,POINT (370480.88073151646 4064337.0812010514),MLG0677,Luis F. Pallardo Peinado,,,,,-1,0,-1,,,MLG0677,Luis F. Pallardo Peinado,36.715900,-4.450240
da_amb_contenedoresvidrio.fid-2958923c_16b642ccbef_-40d5,11180,POINT (371347.8757279189 4064604.7393135596),MLG0678,del obispo angel herrera oria cruce ,,,,,-1,0,-1,,,MLG0678,del obispo angel herrera oria cruce,36.718430,-4.440580
da_amb_contenedoresvidrio.fid-2958923c_16b642ccbef_-40d4,11181,POINT (371633.0230221711 4064598.9031993244),MLG0679,Ingeniero de la Torre Acosta,,,,,-1,0,-1,,,MLG0679,Ingeniero de la Torre Acosta,36.718416,-4.437387
da_amb_contenedoresvidrio.fid-2958923c_16b642ccbef_-40d3,11182,POINT (372167.7695492111 4064067.3756363057),MLG0680,Mendivil,,,,,-1,0,-1,,,MLG0680,Mendivil,36.713698,-4.431312
da_amb_contenedoresvidrio.fid-2958923c_16b642ccbef_-40d2,11183,POINT (372088.4545972799 4064367.272294808),MLG0681,walt whitman,,,,,-1,0,-1,,,MLG0681,walt whitman,36.716390,-4.432250
da_amb_contenedoresvidrio.fid-2958923c_16b642ccbef_-40d1,11184,POINT (371841.0108915629 4064188.9956228123),MLG0682,mauricio moro pareto s/n,,,,,-1,0,-1,,,MLG0682,mauricio moro pareto s/n,36.714750,-4.434990
da_amb_contenedoresvidrio.fid-2958923c_16b642ccbef_-40d0,11185,POINT (371854.30462756555 4064122.2188664684),MLG0683,mauricio moro pareto s/n,,,,,-1,0,-1,,,MLG0683,mauricio moro pareto s/n,36.714150,-4.434830
da_amb_contenedoresvidrio.fid-2958923c_16b642ccbef_-40cf,11186,POINT (371831.5310504983 4064152.519869843),MLG0684,mauricio moro pareto,,,,,-1,0,-1,,,MLG0684,mauricio moro pareto,36.714420,-4.435090
da_amb_contenedoresvidrio.fid-2958923c_16b642ccbef_-40ce,11187,POINT (371992.6254929148 4064052.461493589),MLG0685,de la solidaridad versus paseo de los ,,,,,-1,0,-1,,,MLG0685,de la solidaridad versus paseo de los,36.713540,-4.433270
da_amb_contenedoresvidrio.fid-2958923c_16b642ccbef_-40cd,11188,POINT (372042.74973252654 4063957.2826674934),MLG0686,Mendívil,,,,,-1,0,-1,,,MLG0686,Mendívil,36.712689,-4.432693
da_amb_contenedoresvidrio.fid-2958923c_16b642ccbef_-40cc,11189,POINT (372181.63825515483 4063997.040123963),MLG0687,Mendívil,,,,,-1,0,-1,,,MLG0687,Mendívil,36.713066,-4.431145
da_amb_contenedoresvidrio.fid-2958923c_16b642ccbef_-40cb,11190,POINT (371641.9486142858 4064139.826530649),MLG0688,gerona,,,,,-1,0,-1,,,MLG0688,gerona,36.714280,-4.437210
da_amb_contenedoresvidrio.fid-2958923c_16b642ccbef_-40ca,11191,POINT (371596.19772346166 4064127.1973202857),MLG0689,gerona versus calle madre teresa de ,,,,,-1,0,-1,,,MLG0689,gerona versus calle madre teresa de,36.714160,-4.437720
da_amb_contenedoresvidrio.fid-2958923c_16b642ccbef_-40c9,11192,POINT (371153.39329624723 4063874.4209097032),MLG0690,de José Ortega y Gasset,,,,,-1,0,-1,,,MLG0690,de José Ortega y Gasset,36.711822,-4.442634
da_amb_contenedoresvidrio.fid-2958923c_16b642ccbef_-40c8,11193,POINT (371156.4602000067 4063876.372074928),MLG0691,jose ortega y gasset,,,,,-1,0,-1,,,MLG0691,jose ortega y gasset,36.711840,-4.442600
da_amb_contenedoresvidrio.fid-2958923c_16b642ccbef_-40c7,11194,POINT (371000.8174113823 4063839.879484598),MLG0692,de José Ortega y Gasset,,,,,-1,0,-1,,,MLG0692,de José Ortega y Gasset,36.711490,-4.444336
da_amb_contenedoresvidrio.fid-2958923c_16b642ccbef_-40c6,11195,POINT (371198.59614550037 4063773.3189066583),MLG0693,Alfambra,,,,,-1,0,-1,,,MLG0693,Alfambra,36.710917,-4.442111
da_amb_contenedoresvidrio.fid-2958923c_16b642ccbef_-40c5,11196,POINT (371256.72723837104 4063700.0963795357),MLG0694,Alfambra,,,,,-1,0,-1,,,MLG0694,Alfambra,36.710265,-4.441448
da_amb_contenedoresvidrio.fid-2958923c_16b642ccbef_-40c4,11197,POINT (371148.60292030394 4063621.4971374418),MLG0695,Amarguillo,,,,,-1,0,-1,,,MLG0695,Amarguillo,36.709542,-4.442645
da_amb_contenedoresvidrio.fid-2958923c_16b642ccbef_-40c3,11198,POINT (371897.7980376425 4064282.463736369),MLG0696,Walt Whitman vs C/ Voluntariado ,,,,,-1,0,-1,,,MLG0696,Walt Whitman vs C/ Voluntariado,36.715600,-4.434370
da_amb_contenedoresvidrio.fid-2958923c_16b642ccbef_-40c2,11199,POINT (371837.5335576599 4064374.3556266227),MLG0697,Walt Whitman s/n,,,,,-1,0,-1,,,MLG0697,Walt Whitman s/n,36.716420,-4.435060
da_amb_contenedoresvidrio.fid-2958923c_16b642ccbef_-40c1,11200,POINT (371764.6681887831 4064042.558695995),MLG0698,De los Tilos,,,,,-1,0,-1,,,MLG0698,De los Tilos,36.713420,-4.435820
da_amb_contenedoresvidrio.fid-2958923c_16b642ccbef_-40c0,11201,POINT (371797.47518894187 4063918.6765391477),MLG0699,Edison,,,,,-1,0,-1,,,MLG0699,Edison,36.712308,-4.435432
da_amb_contenedoresvidrio.fid-2958923c_16b642ccbef_-40bf,11202,POINT (371561.6021453854 4063988.7908719876),MLG0700,de los Tilos,,,,,-1,0,-1,,,MLG0700,de los Tilos,36.712908,-4.438084
da_amb_contenedoresvidrio.fid-2958923c_16b642ccbef_-40be,11203,POINT (370982.7103619797 4063729.189214126),MLG0701,Dr. Mañas Bernabéu,,,,,-1,0,-1,,,MLG0701,Dr. Mañas Bernabéu,36.710490,-4.444520
da_amb_contenedoresvidrio.fid-2958923c_16b642ccbef_-40bd,11204,POINT (371078.3448943887 4063719.9807311217),MLG0702,de San Rafael,,,,,-1,0,-1,,,MLG0702,de San Rafael,36.710420,-4.443448
da_amb_contenedoresvidrio.fid-2958923c_16b642ccbef_-40bc,11205,POINT (371248.09492254443 4063827.0570065426),MLG0703,Antonio Martelo,,,,,-1,0,-1,,,MLG0703,Antonio Martelo,36.711408,-4.441566
da_amb_contenedoresvidrio.fid-2958923c_16b642ccbef_-40bb,11206,POINT (371347.32109430287 4063735.9067616058),MLG0704,Santo Tomás,,,,,-1,0,-1,,,MLG0704,Santo Tomás,36.710600,-4.440440
da_amb_contenedoresvidrio.fid-2958923c_16b642ccbef_-40ba,11207,POINT (371322.93776277825 4063718.5192317693),MLG0705,Antonio Martelo,,,,,-1,0,-1,,,MLG0705,Antonio Martelo,36.710440,-4.440710
da_amb_contenedoresvidrio.fid-2958923c_16b642ccbef_-40b9,11208,POINT (371111.0801007196 4063591.880127806),MLG0706,Andarax,,,,,-1,0,-1,,,MLG0706,Andarax,36.709270,-4.443060
da_amb_contenedoresvidrio.fid-2958923c_16b642ccbef_-40b8,11209,POINT (370230.29762412456 4064248.777732769),MLG0707,Corregidor Nicolás Isidro,,,,,-1,0,-1,,,MLG0707,Corregidor Nicolás Isidro,36.715070,-4.453030
da_amb_contenedoresvidrio.fid-2958923c_16b642ccbef_-40b7,11210,POINT (372198.1460521732 4064414.4568987177),MLG0708,Andalucía,,,,,-1,0,-1,,,MLG0708,Andalucía,36.716830,-4.431030
da_amb_contenedoresvidrio.fid-2958923c_16b642ccbef_-40b6,11211,POINT (372137.0505853214 4064450.877665051),MLG0709,Andalucía,,,,,-1,0,-1,,,MLG0709,Andalucía,36.717150,-4.431720
da_amb_contenedoresvidrio.fid-2958923c_16b642ccbef_-40b5,11212,POINT (371571.99080222385 4064538.1236013584),MLG0710,Manuel España Lobo,,,,,-1,0,-1,,,MLG0710,Manuel España Lobo,36.717860,-4.438060
da_amb_contenedoresvidrio.fid-2958923c_16b642ccbef_-40b4,11213,POINT (371516.50471286284 4064567.1411969564),MLG0711,del Obispo Angel Herrera Oria,,,,,-1,0,-1,,,MLG0711,del Obispo Angel Herrera Oria,36.718114,-4.438686
da_amb_contenedoresvidrio.fid-2958923c_16b642ccbef_-40b3,11214,POINT (371356.28225647483 4064510.294250539),MLG0712,Pedro Gómez Chaix,,,,,-1,0,-1,,,MLG0712,Pedro Gómez Chaix,36.717580,-4.440470
da_amb_contenedoresvidrio.fid-2958923c_16b642ccbef_-40b2,11215,POINT (371315.26648636255 4064396.618951157),MLG0713,Andalucía,,,,,-1,0,-1,,,MLG0713,Andalucía,36.716550,-4.440910
da_amb_contenedoresvidrio.fid-2958923c_16b642ccbef_-40b1,11216,POINT (371108.980674729 4064603.230289826),MLG0714,Virgen de las Flores,,,,,-1,0,-1,,,MLG0714,Virgen de las Flores,36.718384,-4.443254
da_amb_contenedoresvidrio.fid-2958923c_16b642ccbef_-40b0,11217,POINT (371107.5339121708 4064424.1573687964),MLG0715,Virgen de la Estrella,,,,,-1,0,-1,,,MLG0715,Virgen de la Estrella,36.716770,-4.443240
da_amb_contenedoresvidrio.fid-2958923c_16b642ccbef_-40af,11218,POINT (370875.7273428686 4064395.472804244),MLG0716,Virgen de la Esperanza,,,,,-1,0,-1,,,MLG0716,Virgen de la Esperanza,36.716480,-4.445830
da_amb_contenedoresvidrio.fid-2958923c_16b642ccbef_-40ae,11219,POINT (370990.86951607006 4064406.718812348),MLG0717,Virgen de la Servita,,,,,-1,0,-1,,,MLG0717,Virgen de la Servita,36.716597,-4.444543
da_amb_contenedoresvidrio.fid-2958923c_16b642ccbef_-40ad,11220,POINT (370686.9359088626 4064434.941664391),MLG0718,María Auxiliadora,,,,,-1,0,-1,,,MLG0718,María Auxiliadora,36.716810,-4.447950
da_amb_contenedoresvidrio.fid-2958923c_16b642ccbef_-40ac,11221,POINT (370680.4081085098 4064298.5552407997),MLG0719,Virgen de la Cabeza,,,,,-1,0,-1,,,MLG0719,Virgen de la Cabeza,36.715580,-4.448000
da_amb_contenedoresvidrio.fid-2958923c_16b642ccbef_-40ab,11222,POINT (371533.53164511616 4064737.32480198),MLG0720,Ingeniero de la Torre Acosta,,,,,-1,0,-1,,,MLG0720,Ingeniero de la Torre Acosta,36.719650,-4.438524
da_amb_contenedoresvidrio.fid-2958923c_16b642ccbef_-40aa,11223,POINT (371479.1091449611 4064813.264136574),MLG0721,Ingeniero de la Torre Acosta,,,,,-1,0,-1,,,MLG0721,Ingeniero de la Torre Acosta,36.720327,-4.439146
da_amb_contenedoresvidrio.fid-2958923c_16b642ccbef_-40a9,11224,POINT (371336.0283136497 4064945.5744482763),MLG0722,martinez maldonado,,,,,-1,0,-1,,,MLG0722,martinez maldonado,36.721500,-4.440770
da_amb_contenedoresvidrio.fid-2958923c_16b642ccbef_-40a8,11225,POINT (371681.6376946829 4064743.0916599217),MLG0723,Capitán Huelin,,,,,-1,0,-1,,,MLG0723,Capitán Huelin,36.719722,-4.436867
da_amb_contenedoresvidrio.fid-2958923c_16b642ccbef_-40a7,11226,POINT (371475.7511594889 4064851.3749302765),MLG0724,ingeniero de la torre acosta,,,,,-1,0,-1,,,MLG0724,ingeniero de la torre acosta,36.720670,-4.439190
da_amb_contenedoresvidrio.fid-2958923c_16b642ccbef_-40a6,11227,POINT (371416.1519541766 4063702.804114137),MLG0725,Reboul,,,,,-1,0,-1,,,MLG0725,Reboul,36.710311,-4.439664
da_amb_contenedoresvidrio.fid-2958923c_16b642ccbef_-40a5,11228,POINT (371236.55870478076 4063487.794600154),MLG0726,Agustín Martín Carrión,,,,,-1,0,-1,,,MLG0726,Agustín Martín Carrión,36.708349,-4.441638
da_amb_contenedoresvidrio.fid-2958923c_16b642ccbef_-40a4,11229,POINT (369833.9754291072 4063001.460713363),MLG0727,Dan,,,,,-1,0,-1,,,MLG0727,Dan,36.703775,-4.457254
da_amb_contenedoresvidrio.fid-2958923c_16b642ccbef_-40a3,11230,POINT (369932.5517375265 4063632.2336320654),MLG0728,Obsidiana,,,,,-1,0,-1,,,MLG0728,Obsidiana,36.709473,-4.456258
da_amb_contenedoresvidrio.fid-2958923c_16b642ccbef_-40a2,11231,POINT (370064.8731093155 4063179.378591596),MLG0729,juan gris versus avenida nehemias,,,,,-1,0,-1,,,MLG0729,juan gris versus avenida nehemias,36.705410,-4.454700
da_amb_contenedoresvidrio.fid-2958923c_16b642ccbef_-40a1,11232,POINT (370222.125417262 4063591.9968704074),MLG0730,de Alozaina,,,,,-1,0,-1,,,MLG0730,de Alozaina,36.709150,-4.453010
da_amb_contenedoresvidrio.fid-2958923c_16b642ccbef_-40a0,11233,POINT (370078.9362395168 4063658.528060277),MLG0731,de José Ortega y Gasset,,,,,-1,0,-1,,,MLG0731,de José Ortega y Gasset,36.709730,-4.454624
da_amb_contenedoresvidrio.fid-2958923c_16b642ccbef_-409f,11234,POINT (370039.3856892465 4063619.1815676),MLG0732,de José Ortega y Gasset vs calle ,,,,,-1,0,-1,,,MLG0732,de José Ortega y Gasset vs calle,36.709370,-4.455060
da_amb_contenedoresvidrio.fid-2958923c_16b642ccbef_-409e,11235,POINT (371621.488189657 4064937.513508228),MLG0733,Martínez Maldonado,,,,,-1,0,-1,,,MLG0733,Martínez Maldonado,36.721466,-4.437573
da_amb_contenedoresvidrio.fid-2958923c_16b642ccbef_-409d,11236,POINT (371610.69378108025 4064872.9840230173),MLG0734,Capitán Marcos García,,,,,-1,0,-1,,,MLG0734,Capitán Marcos García,36.720883,-4.437683
da_amb_contenedoresvidrio.fid-2958923c_16b642ccbef_-409c,11237,POINT (371720.81107704446 4064930.9194114576),MLG0735,martinez maldonado,,,,,-1,0,-1,,,MLG0735,martinez maldonado,36.721420,-4.436460
da_amb_contenedoresvidrio.fid-2958923c_16b642ccbef_-409b,11238,POINT (372032.15421086014 4064724.3045543507),MLG0736,hilera cruce con calle blanco coris,,,,,-1,0,-1,,,MLG0736,hilera cruce con calle blanco coris,36.719600,-4.432940
da_amb_contenedoresvidrio.fid-2958923c_16b642ccbef_-409a,11239,POINT (371846.08174082724 4064479.8642361844),MLG0737,Alcalde Tomás Domínguez,,,,,-1,0,-1,,,MLG0737,Alcalde Tomás Domínguez,36.717372,-4.434982
da_amb_contenedoresvidrio.fid-2958923c_16b642ccbef_-4099,11240,POINT (372359.3576304032 4064615.777970093),MLG0738,Armengual de la Mota,,,,,-1,0,-1,,,MLG0738,Armengual de la Mota,36.718666,-4.429259
da_amb_contenedoresvidrio.fid-2958923c_16b642ccbef_-4098,11241,POINT (371652.46540856455 4063691.3788167597),MLG0739,Francisco de Sarria,,,,,-1,0,-1,,,MLG0739,Francisco de Sarria,36.710240,-4.437017
da_amb_contenedoresvidrio.fid-2958923c_16b642ccbef_-4097,11242,POINT (371476.41691259877 4063795.32973867),MLG0740,la Unión,,,,,-1,0,-1,,,MLG0740,la Unión,36.711153,-4.439005
da_amb_contenedoresvidrio.fid-2958923c_16b642ccbef_-4096,11243,POINT (371475.99224305886 4063737.3025005464),MLG0741,Reboul vs c/ Dulce Chacón,,,,,-1,0,-1,,,MLG0741,Reboul vs c/ Dulce Chacón,36.710630,-4.439000
da_amb_contenedoresvidrio.fid-2958923c_16b642ccbef_-4095,11244,POINT (371330.59498488304 4063574.1522233584),MLG0742,Gabriel Encina,,,,,-1,0,-1,,,MLG0742,Gabriel Encina,36.709140,-4.440600
da_amb_contenedoresvidrio.fid-2958923c_16b642ccbef_-4094,11245,POINT (371262.2907449722 4063630.4388735187),MLG0743,Gregorio de Frías,,,,,-1,0,-1,,,MLG0743,Gregorio de Frías,36.709638,-4.441374
da_amb_contenedoresvidrio.fid-2958923c_16b642ccbef_-4093,11246,POINT (371137.70096000534 4063520.4629301345),MLG0744,Pedro de Paz,,,,,-1,0,-1,,,MLG0744,Pedro de Paz,36.708630,-4.442750
da_amb_contenedoresvidrio.fid-2958923c_16b642ccbef_-4092,11247,POINT (370899.939503323 4063631.6800260567),MLG0745,San Rafael vs C/ Teba,,,,,-1,0,-1,,,MLG0745,San Rafael vs C/ Teba,36.709600,-4.445430
da_amb_contenedoresvidrio.fid-2958923c_16b642ccbef_-4091,11248,POINT (370705.0997756646 4063449.3123154),MLG0746,San Rafael,,,,,-1,0,-1,,,MLG0746,San Rafael,36.707930,-4.447580
da_amb_contenedoresvidrio.fid-2958923c_16b642ccbef_-4090,11249,POINT (370037.4701857356 4063022.2262527323),MLG0747,San Rafael,,,,,-1,0,-1,,,MLG0747,San Rafael,36.703990,-4.454980
da_amb_contenedoresvidrio.fid-2958923c_16b642ccbef_-408f,11250,POINT (369871.1163189789 4062835.005405802),MLG0748,Oscar Esplá vs Rodolfo Halffter,,,,,-1,0,-1,,,MLG0748,Oscar Esplá vs Rodolfo Halffter,36.702280,-4.456810
da_amb_contenedoresvidrio.fid-2958923c_16b642ccbef_-408e,11251,POINT (370622.2011894706 4063402.8506689197),MLG0749,San Rafael,,,,,-1,0,-1,,,MLG0749,San Rafael,36.707500,-4.448500
da_amb_contenedoresvidrio.fid-2958923c_16b642ccbef_-408d,11252,POINT (370028.0645654471 4063108.9206542615),MLG0750,Nehemias,,,,,-1,0,-1,,,MLG0750,Nehemias,36.704770,-4.455100
da_amb_contenedoresvidrio.fid-2958923c_16b642ccbef_-408c,11253,POINT (369845.90522782115 4063174.9375360124),MLG0751,Nehemias,,,,,-1,0,-1,,,MLG0751,Nehemias,36.705340,-4.457150
da_amb_contenedoresvidrio.fid-2958923c_16b642ccbef_-408b,11254,POINT (370210.2415420932 4063102.8277960285),MLG0752,San Rafael,,,,,-1,0,-1,,,MLG0752,San Rafael,36.704740,-4.453060
da_amb_contenedoresvidrio.fid-2958923c_16b642ccbef_-408a,11255,POINT (372242.69151909207 4064555.934860432),MLG0753,Compositor Lehmberg Ruiz,,,,,-1,0,-1,,,MLG0753,Compositor Lehmberg Ruiz,36.718111,-4.430555
da_amb_contenedoresvidrio.fid-2958923c_16b642ccbef_-4089,11256,POINT (372099.6377931716 4064517.7925049746),MLG0754,Compositor Lehmberg Ruiz,,,,,-1,0,-1,,,MLG0754,Compositor Lehmberg Ruiz,36.717748,-4.432150
da_amb_contenedoresvidrio.fid-2958923c_16b642ccbef_-4088,11257,POINT (371871.0730256834 4064585.7923979927),MLG0755,compositor lehmberg ruiz,,,,,-1,0,-1,,,MLG0755,compositor lehmberg ruiz,36.718330,-4.434720
da_amb_contenedoresvidrio.fid-2958923c_16b642ccbef_-4087,11258,POINT (371971.6666505886 4064633.99799523),MLG0756,Esperanto,,,,,-1,0,-1,,,MLG0756,Esperanto,36.718778,-4.433602
da_amb_contenedoresvidrio.fid-2958923c_16b642ccbef_-4086,11259,POINT (366726.3684855661 4063149.6985300207),MLG0757,jose maria jacquard cruce con calle ,,,,,-1,0,-1,,,MLG0757,jose maria jacquard cruce con calle,36.704680,-4.492060
da_amb_contenedoresvidrio.fid-2958923c_16b642ccbef_-4085,11260,POINT (367099.78946542204 4063525.7246979075),MLG0758,de José Ortega y Gasset,,,,,-1,0,-1,,,MLG0758,de José Ortega y Gasset,36.708121,-4.487946
da_amb_contenedoresvidrio.fid-2958923c_16b642ccbef_-4084,11261,POINT (366835.69449164625 4062940.4919646136),MLG0759,ucrania,,,,,-1,0,-1,,,MLG0759,ucrania,36.702810,-4.490800
da_amb_contenedoresvidrio.fid-2958923c_16b642ccbef_-4083,11262,POINT (367664.7633776709 4063511.3120510005),MLG0760,del doctor saenz de tejada,,,,,-1,0,-1,,,MLG0760,del doctor saenz de tejada,36.708070,-4.481620
da_amb_contenedoresvidrio.fid-2958923c_16b642ccbef_-4082,11263,POINT (367636.88794559217 4063326.4315272765),MLG0761,abderraman,,,,,-1,0,-1,,,MLG0761,abderraman,36.706400,-4.481900
da_amb_contenedoresvidrio.fid-2958923c_16b642ccbef_-4081,11264,POINT (367728.5333274136 4063301.712291111),MLG0762,doctor gomez del rio,,,,,-1,0,-1,,,MLG0762,doctor gomez del rio,36.706190,-4.480870
da_amb_contenedoresvidrio.fid-2958923c_16b642ccbef_-4080,11265,POINT (368354.00362830807 4062490.906729807),MLG0763,de los prados,,,,,-1,0,-1,,,MLG0763,de los prados,36.698970,-4.473730
da_amb_contenedoresvidrio.fid-2958923c_16b642ccbef_-407f,11266,POINT (368232.61165238294 4062499.431841178),MLG0764,de los prados,,,,,-1,0,-1,,,MLG0764,de los prados,36.699030,-4.475090
da_amb_contenedoresvidrio.fid-2958923c_16b642ccbef_-407e,11267,POINT (369356.4581129955 4066111.8493840736),MLG0765,cirilo salinas,,,,,-1,0,-1,,,MLG0765,cirilo salinas,36.731740,-4.463130
da_amb_contenedoresvidrio.fid-2958923c_16b642ccbef_-407d,11268,POINT (369058.88873718557 4066160.7860767427),MLG0766,julio verne,,,,,-1,0,-1,,,MLG0766,julio verne,36.732140,-4.466470
da_amb_contenedoresvidrio.fid-2958923c_16b642ccbef_-407c,11269,POINT (367981.2364944627 4067285.8980666115),MLG0767,aragonito s/n,,,,,-1,0,-1,,,MLG0767,aragonito s/n,36.742130,-4.478730
da_amb_contenedoresvidrio.fid-2958923c_16b642ccbef_-407b,11270,POINT (367662.3216536482 4067164.4390145265),MLG0768,Galaxia,,,,,-1,0,-1,,,MLG0768,Galaxia,36.740991,-4.482280
da_amb_contenedoresvidrio.fid-2958923c_16b642ccbef_-407a,11271,POINT (367778.2985959875 4067907.113050512),MLG0769,fuente alegre,,,,,-1,0,-1,,,MLG0769,fuente alegre,36.747700,-4.481110
da_amb_contenedoresvidrio.fid-2958923c_16b642ccbef_-4079,11272,POINT (367831.3128699362 4068159.2949075624),MLG0770,fuente alegre,,,,,-1,0,-1,,,MLG0770,fuente alegre,36.749980,-4.480560
da_amb_contenedoresvidrio.fid-2958923c_16b642ccbef_-4078,11273,POINT (367969.95596440195 4068463.4172318033),MLG0771,fuente alegre versus calle neptuno,,,,,-1,0,-1,,,MLG0771,fuente alegre versus calle neptuno,36.752740,-4.479060
da_amb_contenedoresvidrio.fid-2958923c_16b642ccbef_-4077,11274,POINT (367582.1797343938 4067929.0133477626),MLG0772,bartolome de las casas s/n,,,,,-1,0,-1,,,MLG0772,bartolome de las casas s/n,36.747870,-4.483310
da_amb_contenedoresvidrio.fid-2958923c_16b642ccbef_-4076,11275,POINT (367330.9079808595 4067389.1768965456),MLG0773,roncesvalles,,,,,-1,0,-1,,,MLG0773,roncesvalles,36.742970,-4.486030
da_amb_contenedoresvidrio.fid-2958923c_16b642ccbef_-4075,11276,POINT (367484.3748714116 4067495.543068726),MLG0774,lagunas de ruidera,,,,,-1,0,-1,,,MLG0774,lagunas de ruidera,36.743950,-4.484330
da_amb_contenedoresvidrio.fid-2958923c_16b642ccbef_-4074,11277,POINT (367186.2109121128 4067652.0827672607),MLG0775,Jacobina,,,,,-1,0,-1,,,MLG0775,Jacobina,36.745319,-4.487696
da_amb_contenedoresvidrio.fid-2958923c_16b642ccbef_-4073,11278,POINT (366941.4338545547 4064460.0730115403),MLG0776,Dolores Rodríguez de Aragón,,,,,-1,0,-1,,,MLG0776,Dolores Rodríguez de Aragón,36.716519,-4.489881
da_amb_contenedoresvidrio.fid-2958923c_16b642ccbef_-4072,11279,POINT (373110.87328091543 4066444.800027041),MLG0777,Obispo Bartolomé Espejo,,,,,-1,0,-1,,,MLG0777,Obispo Bartolomé Espejo,36.735250,-4.421150
da_amb_contenedoresvidrio.fid-2958923c_16b642ccbef_-4071,11280,POINT (373006.3692810513 4066444.132111825),MLG0778,Obispo Bartolomé Espejo,,,,,-1,0,-1,,,MLG0778,Obispo Bartolomé Espejo,36.735230,-4.422320
da_amb_contenedoresvidrio.fid-2958923c_16b642ccbef_-4070,11281,POINT (372910.2842744908 4067154.0564060668),MLG0779,Santiago Ramón y Cajal,,,,,-1,0,-1,,,MLG0779,Santiago Ramón y Cajal,36.741615,-4.423514
da_amb_contenedoresvidrio.fid-2958923c_16b642ccbef_-406f,11282,POINT (372940.6666294501 4067371.6466342476),MLG0780,Santiago Ramon y Cajal,,,,,-1,0,-1,,,MLG0780,Santiago Ramon y Cajal,36.743580,-4.423210
da_amb_contenedoresvidrio.fid-2958923c_16b642ccbef_-406e,11283,POINT (372949.95507850475 4067455.840299065),MLG0781,Santiago Ramon y Cajal,,,,,-1,0,-1,,,MLG0781,Santiago Ramon y Cajal,36.744340,-4.423120
da_amb_contenedoresvidrio.fid-2958923c_16b642ccbef_-406d,11284,POINT (372969.98742597416 4067602.0134793427),MLG0782,Santiago Ramon y Cajal,,,,,-1,0,-1,,,MLG0782,Santiago Ramon y Cajal,36.745660,-4.422920
da_amb_contenedoresvidrio.fid-2958923c_16b642ccbef_-406c,11285,POINT (372898.6558308944 4067975.5761931306),MLG0783,Jacinto Benavente,,,,,-1,0,-1,,,MLG0783,Jacinto Benavente,36.749017,-4.423781
da_amb_contenedoresvidrio.fid-2958923c_16b642ccbef_-406b,11286,POINT (372786.88715632365 4068199.497893343),MLG0784,Jacinto Benavente,,,,,-1,0,-1,,,MLG0784,Jacinto Benavente,36.751020,-4.425070
da_amb_contenedoresvidrio.fid-2958923c_16b642ccbef_-406a,11287,POINT (372885.9589317776 4068376.6741597666),MLG0785,De Casabermeja,,,,,-1,0,-1,,,MLG0785,De Casabermeja,36.752630,-4.423990
da_amb_contenedoresvidrio.fid-2958923c_16b642ccbef_-4069,11288,POINT (372955.4134938461 4068243.595455045),MLG0786,De Casabermeja,,,,,-1,0,-1,,,MLG0786,De Casabermeja,36.751440,-4.423190
da_amb_contenedoresvidrio.fid-2958923c_16b642ccbef_-4068,11289,POINT (373078.8491246883 4067776.8271971457),MLG0787,Emilio Thuillier,,,,,-1,0,-1,,,MLG0787,Emilio Thuillier,36.747250,-4.421730
da_amb_contenedoresvidrio.fid-2958923c_16b642ccbef_-4067,11290,POINT (373047.3474891335 4067579.7812764416),MLG0788,Emilio Thuillier,,,,,-1,0,-1,,,MLG0788,Emilio Thuillier,36.745470,-4.422050
da_amb_contenedoresvidrio.fid-2958923c_16b642ccbef_-4066,11291,POINT (373030.74243568507 4067363.6505433684),MLG0789,Emilio Thuillier,,,,,-1,0,-1,,,MLG0789,Emilio Thuillier,36.743520,-4.422200
da_amb_contenedoresvidrio.fid-2958923c_16b642ccbef_-4065,11292,POINT (373006.7439636843 4067190.905158775),MLG0790,María Tubau,,,,,-1,0,-1,,,MLG0790,María Tubau,36.741960,-4.422440
da_amb_contenedoresvidrio.fid-2958923c_16b642ccbef_-4064,11293,POINT (372967.8712213999 4066858.5945681795),MLG0791,Lorenza Correa,,,,,-1,0,-1,,,MLG0791,Lorenza Correa,36.738960,-4.422820
da_amb_contenedoresvidrio.fid-2958923c_16b642ccbef_-4063,11294,POINT (371194.2116863326 4075141.9892283487),MLG0792,Autovia A-45 Zona Venta Cotrina,,,,,-1,0,-1,,,MLG0792,Autovia A-45 Zona Venta Cotrina,36.813370,-4.444080
da_amb_contenedoresvidrio.fid-2958923c_16b642ccbef_-4062,11295,POINT (372662.3002787521 4070743.52250025),MLG0793,Haza Carpintero ( Autovia A-45),,,,,-1,0,-1,,,MLG0793,Haza Carpintero ( Autovia A-45),36.773930,-4.426890
da_amb_contenedoresvidrio.fid-2958923c_16b642ccbef_-4061,11296,POINT (372770.0901844313 4070488.9191572103),MLG0794,La Campera (Autovia A45),,,,,-1,0,-1,,,MLG0794,La Campera (Autovia A45),36.771650,-4.425640
da_amb_contenedoresvidrio.fid-2958923c_16b642ccbef_-4060,11297,POINT (373249.689823504 4066832.2196250493),MLG0795,De la Cibeles,,,,,-1,0,-1,,,MLG0795,De la Cibeles,36.738760,-4.419660
da_amb_contenedoresvidrio.fid-2958923c_16b642ccbef_-405f,11298,POINT (373111.12300059653 4066798.6559124445),MLG0796,de Nazaret,,,,,-1,0,-1,,,MLG0796,de Nazaret,36.738439,-4.421206
da_amb_contenedoresvidrio.fid-2958923c_16b642ccbef_-405e,11299,POINT (373120.98529562657 4067066.040400044),MLG0797,Francisco Lopez Lopez,,,,,-1,0,-1,,,MLG0797,Francisco Lopez Lopez,36.740850,-4.421140
da_amb_contenedoresvidrio.fid-2958923c_16b642ccbef_-405d,11300,POINT (371961.60784574074 4066456.3826665822),MLG0798,Máximo Gorky S/n,,,,,-1,0,-1,,,MLG0798,Máximo Gorky S/n,36.735200,-4.434020
da_amb_contenedoresvidrio.fid-2958923c_16b642ccbef_-405c,11301,POINT (371878.084543342 4066425.454349264),MLG0799,Máximo Gorky,,,,,-1,0,-1,,,MLG0799,Máximo Gorky,36.734910,-4.434950
da_amb_contenedoresvidrio.fid-2958923c_16b642ccbef_-405b,11302,POINT (371795.3403405028 4066309.5173174376),MLG0800,la Defensa,,,,,-1,0,-1,,,MLG0800,la Defensa,36.733854,-4.435857
da_amb_contenedoresvidrio.fid-2958923c_16b642ccbef_-405a,11303,POINT (371812.7980072038 4066181.2040922707),MLG0801,Montserrat Roig,,,,,-1,0,-1,,,MLG0801,Montserrat Roig,36.732700,-4.435640
da_amb_contenedoresvidrio.fid-2958923c_16b642ccbef_-4059,11304,POINT (371864.6037559231 4065942.966629681),MLG0802,Arroyo de Los Angeles,,,,,-1,0,-1,,,MLG0802,Arroyo de Los Angeles,36.730560,-4.435020
da_amb_contenedoresvidrio.fid-2958923c_16b642ccbef_-4058,11305,POINT (372446.4734957603 4065970.886649067),MLG0803,Doctor Marañón,,,,,-1,0,-1,,,MLG0803,Doctor Marañón,36.730890,-4.428510
da_amb_contenedoresvidrio.fid-2958923c_16b642ccbef_-4057,11306,POINT (372728.26017405116 4068699.7046416844),MLG0804,Hospitalarios,,,,,-1,0,-1,,,MLG0804,Hospitalarios,36.755520,-4.425810
da_amb_contenedoresvidrio.fid-2958923c_16b642ccbef_-4056,11307,POINT (372671.1953059452 4069124.4341897573),MLG0805,del Jardín Botánico,,,,,-1,0,-1,,,MLG0805,del Jardín Botánico,36.759340,-4.426520
da_amb_contenedoresvidrio.fid-2958923c_16b642ccbef_-4055,11308,POINT (372889.08667258377 4068887.0575748715),MLG0806,Juan Grande vs calle Oropesa,,,,,-1,0,-1,,,MLG0806,Juan Grande vs calle Oropesa,36.757230,-4.424040
da_amb_contenedoresvidrio.fid-2958923c_16b642ccbef_-4054,11309,POINT (372880.82899382885 4068572.045357398),MLG0807,Benito Menin,,,,,-1,0,-1,,,MLG0807,Benito Menin,36.754390,-4.424080
da_amb_contenedoresvidrio.fid-2958923c_16b642ccbef_-4053,11310,POINT (372829.6152790906 4068550.6147513064),MLG0808,Juan Grande,,,,,-1,0,-1,,,MLG0808,Juan Grande,36.754190,-4.424650
da_amb_contenedoresvidrio.fid-2958923c_16b642ccbef_-4052,11311,POINT (373129.65979817556 4068552.8125940906),MLG0809,José Díaz Oliva,,,,,-1,0,-1,,,MLG0809,José Díaz Oliva,36.754250,-4.421290
da_amb_contenedoresvidrio.fid-2958923c_16b642ccbef_-4051,11312,POINT (373241.92132689094 4068596.641378959),MLG0810,Pastora Imperio,,,,,-1,0,-1,,,MLG0810,Pastora Imperio,36.754660,-4.420040
da_amb_contenedoresvidrio.fid-2958923c_16b642ccbef_-4050,11313,POINT (373329.4895213715 4068360.101796414),MLG0811,Pastora Imperio,,,,,-1,0,-1,,,MLG0811,Pastora Imperio,36.752540,-4.419020
da_amb_contenedoresvidrio.fid-2958923c_16b642ccbef_-404f,11314,POINT (373311.58893647674 4067694.5909666256),MLG0812,Málaga Oloroso,,,,,-1,0,-1,,,MLG0812,Málaga Oloroso,36.746540,-4.419110
da_amb_contenedoresvidrio.fid-2958923c_16b642ccbef_-404e,11315,POINT (374236.3180823209 4067607.0345844193),MLG0813,del Colmenar,,,,,-1,0,-1,,,MLG0813,del Colmenar,36.745874,-4.408740
da_amb_contenedoresvidrio.fid-2958923c_16b642ccbef_-404d,11316,POINT (374313.1744487235 4067854.0154431774),MLG0814,del Colmenar,,,,,-1,0,-1,,,MLG0814,del Colmenar,36.748110,-4.407920
da_amb_contenedoresvidrio.fid-2958923c_16b642ccbef_-404c,11317,POINT (374609.8453027785 4069936.8562454307),MLG0815,A-7000,,,,,-1,0,-1,,,MLG0815,A-7000,36.766920,-4.404940
da_amb_contenedoresvidrio.fid-2958923c_16b642ccbef_-404b,11318,POINT (374859.01821191306 4069937.5295032244),MLG0816,A-7000,,,,,-1,0,-1,,,MLG0816,A-7000,36.766959,-4.402149
da_amb_contenedoresvidrio.fid-2958923c_16b642ccbef_-404a,11319,POINT (380220.97999525524 4074084.893843314),MLG0817,Unnamed Road,,,,,-1,0,-1,,,MLG0817,Unnamed Road,36.805029,-4.342738
da_amb_contenedoresvidrio.fid-2958923c_16b642ccbef_-4049,11320,POINT (372567.7652777768 4067037.650591889),MLG0818,Doctor Muguerza Bernal,,,,,-1,0,-1,,,MLG0818,Doctor Muguerza Bernal,36.740520,-4.427330
da_amb_contenedoresvidrio.fid-2958923c_16b642ccbef_-4048,11321,POINT (372298.01990758855 4066915.1775278416),MLG0819,Cabriel,,,,,-1,0,-1,,,MLG0819,Cabriel,36.739380,-4.430330
da_amb_contenedoresvidrio.fid-2958923c_16b642ccbef_-4047,11322,POINT (372180.1364209895 4067094.480046619),MLG0820,Ebro,,,,,-1,0,-1,,,MLG0820,Ebro,36.740980,-4.431680
da_amb_contenedoresvidrio.fid-2958923c_16b642ccbef_-4046,11323,POINT (372858.08975811076 4068375.979111096),MLG0821,Gounod,,,,,-1,0,-1,,,MLG0821,Gounod,36.752620,-4.424302
da_amb_contenedoresvidrio.fid-2958923c_16b642ccbef_-4045,11324,POINT (372665.6151405763 4067071.7008154644),MLG0822,de la Virreina,,,,,-1,0,-1,,,MLG0822,de la Virreina,36.740840,-4.426240
da_amb_contenedoresvidrio.fid-2958923c_16b642ccbef_-4044,11325,POINT (367735.828474616 4066835.842099724),MLG0823,de Andersen,,,,,-1,0,-1,,,MLG0823,de Andersen,36.738040,-4.481400
da_amb_contenedoresvidrio.fid-2958923c_16b642ccbef_-4043,11326,POINT (367804.5809529437 4066834.7788429395),MLG0824,Lope de Rueda,,,,,-1,0,-1,,,MLG0824,Lope de Rueda,36.738040,-4.480630
da_amb_contenedoresvidrio.fid-2958923c_16b642ccbef_-4042,11327,POINT (367909.242642319 4066672.2614390454),MLG0825,Lope de Rueda,,,,,-1,0,-1,,,MLG0825,Lope de Rueda,36.736590,-4.479430
da_amb_contenedoresvidrio.fid-2958923c_16b642ccbef_-4041,11328,POINT (367616.44033943146 4067085.143106836),MLG0826,Lope de Rueda,,,,,-1,0,-1,,,MLG0826,Lope de Rueda,36.740270,-4.482780
da_amb_contenedoresvidrio.fid-2958923c_16b642ccbef_-4040,11329,POINT (367510.3087921672 4067036.852563861),MLG0827,Escritora Matilde del Nido vs Lope de ,,,,,-1,0,-1,,,MLG0827,Escritora Matilde del Nido vs Lope de,36.739820,-4.483960
da_amb_contenedoresvidrio.fid-2958923c_16b642ccbef_-403f,11330,POINT (367189.46839148784 4067194.963398715),MLG0828,Lope de Rueda,,,,,-1,0,-1,,,MLG0828,Lope de Rueda,36.741200,-4.487580
da_amb_contenedoresvidrio.fid-2958923c_16b642ccbef_-403e,11331,POINT (367153.99917140894 4067268.7519960892),MLG0829,Lope de Rueda,,,,,-1,0,-1,,,MLG0829,Lope de Rueda,36.741860,-4.487990
da_amb_contenedoresvidrio.fid-2958923c_16b642ccbef_-403d,11332,POINT (373499.46361760516 4068080.1774924775),MLG0830,alcalde joaquin quiles,,,,,-1,0,-1,,,MLG0830,alcalde joaquin quiles,36.750040,-4.417070
da_amb_contenedoresvidrio.fid-2958923c_16b642ccbef_-403c,11333,POINT (373358.9906273811 4068061.1748990975),MLG0831,alcalde joaquin quiles,,,,,-1,0,-1,,,MLG0831,alcalde joaquin quiles,36.749850,-4.418640
da_amb_contenedoresvidrio.fid-2958923c_16b642ccbef_-403b,11334,POINT (373310.1034114337 4068076.3245759886),MLG0832,alcalde joaquin quiles,,,,,-1,0,-1,,,MLG0832,alcalde joaquin quiles,36.749980,-4.419190
da_amb_contenedoresvidrio.fid-2958923c_16b642ccbef_-403a,11335,POINT (373575.2451231161 4067951.449239856),MLG0833,llobregat,,,,,-1,0,-1,,,MLG0833,llobregat,36.748890,-4.416200
da_amb_contenedoresvidrio.fid-2958923c_16b642ccbef_-4039,11336,POINT (373458.7386286477 4067802.2642341754),MLG0834,jerez perchet,,,,,-1,0,-1,,,MLG0834,jerez perchet,36.747530,-4.417480
da_amb_contenedoresvidrio.fid-2958923c_16b642ccbef_-4038,11337,POINT (373419.1942997663 4067604.2267411198),MLG0835,jerez perchet,,,,,-1,0,-1,,,MLG0835,jerez perchet,36.745740,-4.417890
da_amb_contenedoresvidrio.fid-2958923c_16b642ccbef_-4037,11338,POINT (373212.0166691491 4067844.7573557794),MLG0836,sancho miranda,,,,,-1,0,-1,,,MLG0836,sancho miranda,36.747880,-4.420250
da_amb_contenedoresvidrio.fid-2958923c_16b642ccbef_-4036,11339,POINT (373234.2743702041 4067780.068856544),MLG0837,sanchez albarran,,,,,-1,0,-1,,,MLG0837,sanchez albarran,36.747300,-4.419990
da_amb_contenedoresvidrio.fid-2958923c_16b642ccbef_-4035,11340,POINT (373271.6393380696 4067770.637775589),MLG0838,malaga oloroso,,,,,-1,0,-1,,,MLG0838,malaga oloroso,36.747220,-4.419570
da_amb_contenedoresvidrio.fid-2958923c_16b642ccbef_-4034,11341,POINT (373509.0608037254 4067521.89381931),MLG0839,moscatel,,,,,-1,0,-1,,,MLG0839,moscatel,36.745010,-4.416870
da_amb_contenedoresvidrio.fid-2958923c_16b642ccbef_-4033,11342,POINT (373581.6169671366 4067597.3845947385),MLG0840,malaga oloroso,,,,,-1,0,-1,,,MLG0840,malaga oloroso,36.745700,-4.416070
da_amb_contenedoresvidrio.fid-2958923c_16b642ccbef_-4032,11343,POINT (373527.34159276704 4067538.2677062526),MLG0841,Moscatel,,,,,-1,0,-1,,,MLG0841,Moscatel,36.745160,-4.416668
da_amb_contenedoresvidrio.fid-2958923c_16b642ccbef_-4031,11344,POINT (373111.17553088313 4067307.6407259153),MLG0842,Francisco Correa,,,,,-1,0,-1,,,MLG0842,Francisco Correa,36.743026,-4.421290
da_amb_contenedoresvidrio.fid-2958923c_16b642ccbef_-4030,11345,POINT (373113.06489953824 4067073.925330591),MLG0843,francisco lopez lopez,,,,,-1,0,-1,,,MLG0843,francisco lopez lopez,36.740920,-4.421230
da_amb_contenedoresvidrio.fid-2958923c_16b642ccbef_-402f,11346,POINT (374242.42871520313 4067615.7106908094),MLG0844,del Colmenar,,,,,-1,0,-1,,,MLG0844,del Colmenar,36.745953,-4.408673
da_amb_contenedoresvidrio.fid-2958923c_16b642ccbef_-402e,11347,POINT (372521.82175599807 4068214.5438396223),MLG0845,Jane Bowles,,,,,-1,0,-1,,,MLG0845,Jane Bowles,36.751120,-4.428041
da_amb_contenedoresvidrio.fid-2958923c_16b642ccbef_-402d,11348,POINT (372563.6230327677 4068377.0362519836),MLG0846,gounod,,,,,-1,0,-1,,,MLG0846,gounod,36.752590,-4.427600
da_amb_contenedoresvidrio.fid-2958923c_16b642ccbef_-402c,11349,POINT (372629.73324719706 4068259.5393982558),MLG0847,joaquin gaztambide,,,,,-1,0,-1,,,MLG0847,joaquin gaztambide,36.751540,-4.426840
da_amb_contenedoresvidrio.fid-2958923c_16b642ccbef_-402b,11350,POINT (372554.4623420031 4068181.877721084),MLG0848,jane bowles,,,,,-1,0,-1,,,MLG0848,jane bowles,36.750830,-4.427670
da_amb_contenedoresvidrio.fid-2958923c_16b642ccbef_-402a,11351,POINT (372585.7569572099 4068064.8998487038),MLG0849,jane bowles,,,,,-1,0,-1,,,MLG0849,jane bowles,36.749780,-4.427300
da_amb_contenedoresvidrio.fid-2958923c_16b642ccbef_-4029,11352,POINT (372663.5096007219 4067829.6090757675),MLG0850,jane bowles cruce con calle alejandro ,,,,,-1,0,-1,,,MLG0850,jane bowles cruce con calle alejandro,36.747670,-4.426390
da_amb_contenedoresvidrio.fid-2958923c_16b642ccbef_-4028,11353,POINT (372684.0102956489 4067827.0844271015),MLG0851,jane bowles cruce con calle alejandro ,,,,,-1,0,-1,,,MLG0851,jane bowles cruce con calle alejandro,36.747650,-4.426160
da_amb_contenedoresvidrio.fid-2958923c_16b642ccbef_-4027,11354,POINT (372655.9547863194 4067682.1408372587),MLG0852,jane bowles,,,,,-1,0,-1,,,MLG0852,jane bowles,36.746340,-4.426450
da_amb_contenedoresvidrio.fid-2958923c_16b642ccbef_-4026,11355,POINT (372719.7902034435 4067591.3100783126),MLG0853,borodin,,,,,-1,0,-1,,,MLG0853,borodin,36.745530,-4.425720
da_amb_contenedoresvidrio.fid-2958923c_16b642ccbef_-4025,11356,POINT (372663.5444441013 4067532.2277606255),MLG0854,jane bowles,,,,,-1,0,-1,,,MLG0854,jane bowles,36.744990,-4.426340
da_amb_contenedoresvidrio.fid-2958923c_16b642ccbef_-4024,11357,POINT (372790.9603974051 4066492.8285402004),MLG0855,jorge silvela,,,,,-1,0,-1,,,MLG0855,jorge silvela,36.735640,-4.424740
da_amb_contenedoresvidrio.fid-2958923c_16b642ccbef_-4023,11358,POINT (372946.7004088465 4066635.874177551),MLG0856,isabel chaix,,,,,-1,0,-1,,,MLG0856,isabel chaix,36.736950,-4.423020
da_amb_contenedoresvidrio.fid-2958923c_16b642ccbef_-4022,11359,POINT (373033.7066048018 4066661.2128400304),MLG0857,padre majon versus calle san juan ,,,,,-1,0,-1,,,MLG0857,padre majon versus calle san juan,36.737190,-4.422050
da_amb_contenedoresvidrio.fid-2958923c_16b642ccbef_-4021,11360,POINT (373030.06227820215 4066397.7308192463),MLG0858,Albéniz,,,,,-1,0,-1,,,MLG0858,Albéniz,36.734815,-4.422047
da_amb_contenedoresvidrio.fid-2958923c_16b642ccbef_-4020,11361,POINT (372909.26234001596 4067157.4004805014),MLG0859,Santiago Ramón y Cajal,,,,,-1,0,-1,,,MLG0859,Santiago Ramón y Cajal,36.741645,-4.423526
da_amb_contenedoresvidrio.fid-2958923c_16b642ccbef_-401f,11362,POINT (372846.7999725772 4067545.034706083),MLG0860,del guadalmedina verus calle duran ,,,,,-1,0,-1,,,MLG0860,del guadalmedina verus calle duran,36.745130,-4.424290
da_amb_contenedoresvidrio.fid-2958923c_16b642ccbef_-401e,11363,POINT (372827.01323880884 4068075.731804289),MLG0861,jacinto benavente,,,,,-1,0,-1,,,MLG0861,jacinto benavente,36.749910,-4.424600
da_amb_contenedoresvidrio.fid-2958923c_16b642ccbef_-401d,11364,POINT (372656.3496034897 4068427.8066747785),MLG0862,gounod s/n,,,,,-1,0,-1,,,MLG0862,gounod s/n,36.753060,-4.426570
da_amb_contenedoresvidrio.fid-2958923c_16b642ccbef_-401c,11365,POINT (373026.0294931231 4068068.3342898586),MLG0863,emilio thuiller,,,,,-1,0,-1,,,MLG0863,emilio thuiller,36.749870,-4.422370
da_amb_contenedoresvidrio.fid-2958923c_16b642ccbef_-401b,11366,POINT (373014.5885323834 4067718.97134834),MLG0864,santiago ramon y cajal,,,,,-1,0,-1,,,MLG0864,santiago ramon y cajal,36.746720,-4.422440
da_amb_contenedoresvidrio.fid-2958923c_16b642ccbef_-401a,11367,POINT (372977.07438094635 4067357.7900502672),MLG0865,santiago ramon y cajal versus calle ,,,,,-1,0,-1,,,MLG0865,santiago ramon y cajal versus calle,36.743460,-4.422800
da_amb_contenedoresvidrio.fid-2958923c_16b642ccbef_-4019,11368,POINT (372988.847157281 4067026.1694786097),MLG0866,María Tubau,,,,,-1,0,-1,,,MLG0866,María Tubau,36.740473,-4.422613
da_amb_contenedoresvidrio.fid-2958923c_16b642ccbef_-4018,11369,POINT (372856.08278730605 4066788.1304084132),MLG0867,santiago ramon y cajal,,,,,-1,0,-1,,,MLG0867,santiago ramon y cajal,36.738310,-4.424060
da_amb_contenedoresvidrio.fid-2958923c_16b642ccbef_-4017,11370,POINT (373086.0596698731 4066879.0319375955),MLG0868,nuestra señora de las guias,,,,,-1,0,-1,,,MLG0868,nuestra señora de las guias,36.739160,-4.421500
da_amb_contenedoresvidrio.fid-2958923c_16b642ccbef_-4016,11371,POINT (372003.4345982581 4066327.0392836365),MLG0869,simon bolivar,,,,,-1,0,-1,,,MLG0869,simon bolivar,36.734040,-4.433530
da_amb_contenedoresvidrio.fid-2958923c_16b642ccbef_-4015,11372,POINT (371795.30168321443 4066283.1086533004),MLG0870,la Defensa,,,,,-1,0,-1,,,MLG0870,la Defensa,36.733616,-4.435853
da_amb_contenedoresvidrio.fid-2958923c_16b642ccbef_-4014,11373,POINT (371934.95719492785 4066287.0081360578),MLG0871,montserrat roig,,,,,-1,0,-1,,,MLG0871,montserrat roig,36.733670,-4.434290
da_amb_contenedoresvidrio.fid-2958923c_16b642ccbef_-4013,11374,POINT (371792.3779625412 4066010.62690546),MLG0872,arroyo de los angeles,,,,,-1,0,-1,,,MLG0872,arroyo de los angeles,36.731160,-4.435840
da_amb_contenedoresvidrio.fid-2958923c_16b642ccbef_-4012,11375,POINT (372453.38409101934 4065715.5692100767),MLG0873,doctor marañon,,,,,-1,0,-1,,,MLG0873,doctor marañon,36.728590,-4.428390
da_amb_contenedoresvidrio.fid-2958923c_16b642ccbef_-4011,11376,POINT (372446.8696550042 4065877.6719967383),MLG0874,doctor marañon versus calle godino,,,,,-1,0,-1,,,MLG0874,doctor marañon versus calle godino,36.730050,-4.428490
da_amb_contenedoresvidrio.fid-2958923c_16b642ccbef_-4010,11377,POINT (372460.50545924384 4066091.29395358),MLG0875,del Doctor Marañón,,,,,-1,0,-1,,,MLG0875,del Doctor Marañón,36.731977,-4.428373
da_amb_contenedoresvidrio.fid-2958923c_16b642ccbef_-400f,11378,POINT (372378.97524808615 4066176.065235133),MLG0876,conde de toreno,,,,,-1,0,-1,,,MLG0876,conde de toreno,36.732730,-4.429300
da_amb_contenedoresvidrio.fid-2958923c_16b642ccbef_-400e,11379,POINT (372216.44050157693 4066117.462644411),MLG0877,poeta agustin ruano,,,,,-1,0,-1,,,MLG0877,poeta agustin ruano,36.732180,-4.431110
da_amb_contenedoresvidrio.fid-2958923c_16b642ccbef_-400d,11380,POINT (372112.5155199482 4066215.5539048277),MLG0878,poeta salvador ibarra españa,,,,,-1,0,-1,,,MLG0878,poeta salvador ibarra españa,36.733050,-4.432290
da_amb_contenedoresvidrio.fid-2958923c_16b642ccbef_-400c,11381,POINT (372122.8458796735 4066082.132859134),MLG0879,Poeta Bernardo de la Torre,,,,,-1,0,-1,,,MLG0879,Poeta Bernardo de la Torre,36.731849,-4.432152
